[
  {
    "Code": "AAB",
    "CountryCode": "AU",
    "CountryName": "Australia",
    "Name": "Arrabury",
    "NameUpper": "ARRABURY",
    "CurrencyName": "Australian dollar",
    "CurrencyCode": "AUD",
    "Region": null,
    "Continent": null,
    "IsRequiredVisa": false,
    "Latitude": -26.69301090000000000000,
    "Longitude": 141.04786970000000000000,
    "NearAirports": null
  },
  {
    "Code": "AAL",
    "CountryCode": "DK",
    "CountryName": "Denmark",
    "Name": "Aalborg",
    "NameUpper": "AALBORG",
    "CurrencyName": "Kroner",
    "CurrencyCode": "DKK",
    "Region": null,
    "Continent": null,
    "IsRequiredVisa": false,
    "Latitude": 57.04881950000000000000,
    "Longitude": 9.92174700000000000000,
    "NearAirports": null
  },
  {
    "Code": "ABQ",
    "CountryCode": "US",
    "CountryName": "United States",
    "Name": "Albuquerque",
    "NameUpper": "ALBUQUERQUE",
    "CurrencyName": "Dollars",
    "CurrencyCode": "USD",
    "Region": null,
    "Continent": null,
    "IsRequiredVisa": false,
    "Latitude": 35.08438590000000000000,
    "Longitude": -106.65042200000000000000,
    "NearAirports": null
  },
  {
    "Code": "ABU",
    "CountryCode": "ID",
    "CountryName": "Indonesia",
    "Name": "Atambua",
    "NameUpper": "ATAMBUA",
    "CurrencyName": "Rupiahs",
    "CurrencyCode": "IDR",
    "Region": null,
    "Continent": null,
    "IsRequiredVisa": false,
    "Latitude": -9.10162900000000000000,
    "Longitude": 124.91206620000000000000,
    "NearAirports": null
  },
  {
    "Code": "ABV",
    "CountryCode": "NG",
    "CountryName": "Nigeria",
    "Name": "Abuja",
    "NameUpper": "ABUJA",
    "CurrencyName": "Nairas",
    "CurrencyCode": "NGN",
    "Region": null,
    "Continent": null,
    "IsRequiredVisa": false,
    "Latitude": 9.07647850000000000000,
    "Longitude": 7.39857400000000000000,
    "NearAirports": null
  },
  {
    "Code": "ABZ",
    "CountryCode": "GB",
    "CountryName": "United Kingdom",
    "Name": "Aberdeen",
    "NameUpper": "ABERDEEN",
    "CurrencyName": "Pound sterling",
    "CurrencyCode": "GBP",
    "Region": null,
    "Continent": null,
    "IsRequiredVisa": false,
    "Latitude": 57.14971700000000000000,
    "Longitude": -2.09427800000000000000,
    "NearAirports": null
  },
  {
    "Code": "ACA",
    "CountryCode": "MX",
    "CountryName": "Mexico",
    "Name": "Acapulco",
    "NameUpper": "ACAPULCO",
    "CurrencyName": "Pesos",
    "CurrencyCode": "MXN",
    "Region": null,
    "Continent": null,
    "IsRequiredVisa": false,
    "Latitude": 16.85310860000000000000,
    "Longitude": -99.82365330000000000000,
    "NearAirports": null
  },
  {
    "Code": "ACC",
    "CountryCode": "GH",
    "CountryName": "Ghana",
    "Name": "Accra",
    "NameUpper": "ACCRA",
    "CurrencyName": "Cedis",
    "CurrencyCode": "GHC",
    "Region": null,
    "Continent": null,
    "IsRequiredVisa": false,
    "Latitude": 5.60371680000000000000,
    "Longitude": -0.18696440000000000000,
    "NearAirports": null
  },
  {
    "Code": "ADA",
    "CountryCode": "TR",
    "CountryName": "Turkey",
    "Name": "Adana",
    "NameUpper": "ADANA",
    "CurrencyName": "Lira",
    "CurrencyCode": "TRY",
    "Region": null,
    "Continent": null,
    "IsRequiredVisa": false,
    "Latitude": 36.99141940000000000000,
    "Longitude": 35.33082850000000000000,
    "NearAirports": null
  },
  {
    "Code": "ADB",
    "CountryCode": "TR",
    "CountryName": "Turkey",
    "Name": "Äzmir",
    "NameUpper": "ÄZMIR",
    "CurrencyName": "Lira",
    "CurrencyCode": "TRY",
    "Region": null,
    "Continent": null,
    "IsRequiredVisa": false,
    "Latitude": 38.42373400000000000000,
    "Longitude": 27.14282600000000000000,
    "NearAirports": null
  },
  {
    "Code": "ADD",
    "CountryCode": "ET",
    "CountryName": "Ethiopia",
    "Name": "Addis Ababa",
    "NameUpper": "ADDIS ABABA",
    "CurrencyName": "Ethiopian birr",
    "CurrencyCode": "ETB",
    "Region": null,
    "Continent": null,
    "IsRequiredVisa": false,
    "Latitude": 8.98060340000000000000,
    "Longitude": 38.75776050000000000000,
    "NearAirports": null
  },
  {
    "Code": "ADL",
    "CountryCode": "AU",
    "CountryName": "Australia",
    "Name": "Adelaide",
    "NameUpper": "ADELAIDE",
    "CurrencyName": "Australian dollar",
    "CurrencyCode": "AUD",
    "Region": null,
    "Continent": null,
    "IsRequiredVisa": false,
    "Latitude": -34.92849890000000000000,
    "Longitude": 138.60074560000000000000,
    "NearAirports": null
  },
  {
    "Code": "ADW",
    "CountryCode": "US",
    "CountryName": "United States",
    "Name": "Camp Springs",
    "NameUpper": "CAMP SPRINGS",
    "CurrencyName": "Dollars",
    "CurrencyCode": "USD",
    "Region": null,
    "Continent": null,
    "IsRequiredVisa": false,
    "Latitude": 38.80400270000000000000,
    "Longitude": -76.90663960000000000000,
    "NearAirports": null
  },
  {
    "Code": "AEG",
    "CountryCode": "ID",
    "CountryName": "Indonesia",
    "Name": "Padang Sidempuan",
    "NameUpper": "PADANG SIDEMPUAN",
    "CurrencyName": "Rupiahs",
    "CurrencyCode": "IDR",
    "Region": null,
    "Continent": null,
    "IsRequiredVisa": false,
    "Latitude": 1.44376440000000000000,
    "Longitude": 99.25638590000000000000,
    "NearAirports": null
  },
  {
    "Code": "AER",
    "CountryCode": "RU",
    "CountryName": "Russian Federation",
    "Name": "Sochi",
    "NameUpper": "SOCHI",
    "CurrencyName": "Rubles",
    "CurrencyCode": "RUB",
    "Region": null,
    "Continent": null,
    "IsRequiredVisa": false,
    "Latitude": 43.60280790000000000000,
    "Longitude": 39.73415430000000000000,
    "NearAirports": null
  },
  {
    "Code": "AFW",
    "CountryCode": "US",
    "CountryName": "United States",
    "Name": "Fort Worth",
    "NameUpper": "FORT WORTH",
    "CurrencyName": "Dollars",
    "CurrencyCode": "USD",
    "Region": null,
    "Continent": null,
    "IsRequiredVisa": false,
    "Latitude": 32.75548830000000000000,
    "Longitude": -97.33076580000000000000,
    "NearAirports": null
  },
  {
    "Code": "AGP",
    "CountryCode": "ES",
    "CountryName": "Spain",
    "Name": "Malaga",
    "NameUpper": "MALAGA",
    "CurrencyName": "Euro",
    "CurrencyCode": "EUR",
    "Region": null,
    "Continent": null,
    "IsRequiredVisa": false,
    "Latitude": 36.71674560000000000000,
    "Longitude": -4.42599620000000000000,
    "NearAirports": null
  },
  {
    "Code": "AGS",
    "CountryCode": "US",
    "CountryName": "United States",
    "Name": "Augusta",
    "NameUpper": "AUGUSTA",
    "CurrencyName": "Dollars",
    "CurrencyCode": "USD",
    "Region": null,
    "Continent": null,
    "IsRequiredVisa": false,
    "Latitude": 33.47349780000000000000,
    "Longitude": -82.01051480000000000000,
    "NearAirports": null
  },
  {
    "Code": "AGX",
    "CountryCode": "IN",
    "CountryName": "India",
    "Name": "Agatti Island",
    "NameUpper": "AGATTI ISLAND",
    "CurrencyName": "Rupees",
    "CurrencyCode": "INR",
    "Region": null,
    "Continent": null,
    "IsRequiredVisa": false,
    "Latitude": 10.85756070000000000000,
    "Longitude": 72.19344210000000000000,
    "NearAirports": null
  },
  {
    "Code": "AHI",
    "CountryCode": "ID",
    "CountryName": "Indonesia",
    "Name": "Amahai",
    "NameUpper": "AMAHAI",
    "CurrencyName": "Rupiahs",
    "CurrencyCode": "IDR",
    "Region": null,
    "Continent": null,
    "IsRequiredVisa": false,
    "Latitude": -3.33936150000000000000,
    "Longitude": 128.92299930000000000000,
    "NearAirports": null
  },
  {
    "Code": "AIT",
    "CountryCode": "CK",
    "CountryName": "Cook Islands",
    "Name": "Aitutaki Island",
    "NameUpper": "AITUTAKI ISLAND",
    "CurrencyName": "New zealand dollar",
    "CurrencyCode": "NZD",
    "Region": null,
    "Continent": null,
    "IsRequiredVisa": false,
    "Latitude": -18.85795230000000000000,
    "Longitude": -159.78528430000000000000,
    "NearAirports": null
  },
  {
    "Code": "AKL",
    "CountryCode": "NZ",
    "CountryName": "New Zealand",
    "Name": "Auckland",
    "NameUpper": "AUCKLAND",
    "CurrencyName": "Dollars",
    "CurrencyCode": "NZD",
    "Region": null,
    "Continent": null,
    "IsRequiredVisa": false,
    "Latitude": -36.84845970000000000000,
    "Longitude": 174.76333150000000000000,
    "NearAirports": null
  },
  {
    "Code": "ALA",
    "CountryCode": "KZ",
    "CountryName": "Kazakhstan",
    "Name": "Almaty",
    "NameUpper": "ALMATY",
    "CurrencyName": "Tenge",
    "CurrencyCode": "KZT",
    "Region": null,
    "Continent": null,
    "IsRequiredVisa": false,
    "Latitude": 43.22201460000000000000,
    "Longitude": 76.85124850000000000000,
    "NearAirports": null
  },
  {
    "Code": "ALC",
    "CountryCode": "ES",
    "CountryName": "Spain",
    "Name": "Alicante",
    "NameUpper": "ALICANTE",
    "CurrencyName": "Euro",
    "CurrencyCode": "EUR",
    "Region": null,
    "Continent": null,
    "IsRequiredVisa": false,
    "Latitude": 38.34599630000000000000,
    "Longitude": -0.49068550000000000000,
    "NearAirports": null
  },
  {
    "Code": "ALG",
    "CountryCode": "DZ",
    "CountryName": "Algeria",
    "Name": "Algiers",
    "NameUpper": "ALGIERS",
    "CurrencyName": "Dinar Aljazair",
    "CurrencyCode": "DZD",
    "Region": null,
    "Continent": null,
    "IsRequiredVisa": false,
    "Latitude": 36.75376800000000000000,
    "Longitude": 3.05875610000000000000,
    "NearAirports": null
  },
  {
    "Code": "ALP",
    "CountryCode": "SY",
    "CountryName": "Syrian Arab Rep.",
    "Name": "Aleppo",
    "NameUpper": "ALEPPO",
    "CurrencyName": "Syrian pound",
    "CurrencyCode": "SYP",
    "Region": null,
    "Continent": null,
    "IsRequiredVisa": false,
    "Latitude": 36.20210470000000000000,
    "Longitude": 37.13426030000000000000,
    "NearAirports": null
  },
  {
    "Code": "AMA",
    "CountryCode": "US",
    "CountryName": "United States",
    "Name": "Amarillo",
    "NameUpper": "AMARILLO",
    "CurrencyName": "Dollars",
    "CurrencyCode": "USD",
    "Region": null,
    "Continent": null,
    "IsRequiredVisa": false,
    "Latitude": 35.22199710000000000000,
    "Longitude": -101.83129690000000000000,
    "NearAirports": null
  },
  {
    "Code": "AMD",
    "CountryCode": "IN",
    "CountryName": "India",
    "Name": "Ahmedabad",
    "NameUpper": "AHMEDABAD",
    "CurrencyName": "Rupees",
    "CurrencyCode": "INR",
    "Region": null,
    "Continent": null,
    "IsRequiredVisa": false,
    "Latitude": 23.02250500000000000000,
    "Longitude": 72.57136210000000000000,
    "NearAirports": null
  },
  {
    "Code": "AMI",
    "CountryCode": "ID",
    "CountryName": "Indonesia",
    "Name": "Mataram",
    "NameUpper": "MATARAM",
    "CurrencyName": "Rupiahs",
    "CurrencyCode": "IDR",
    "Region": null,
    "Continent": null,
    "IsRequiredVisa": false,
    "Latitude": -8.59708080000000000000,
    "Longitude": 116.10048940000000000000,
    "NearAirports": null
  },
  {
    "Code": "AMM",
    "CountryCode": "JO",
    "CountryName": "Jordan",
    "Name": "Amman",
    "NameUpper": "AMMAN",
    "CurrencyName": "Jordanian dinar",
    "CurrencyCode": "JOD",
    "Region": null,
    "Continent": null,
    "IsRequiredVisa": false,
    "Latitude": 31.95394940000000000000,
    "Longitude": 35.91063500000000000000,
    "NearAirports": null
  },
  {
    "Code": "AMQ",
    "CountryCode": "ID",
    "CountryName": "Indonesia",
    "Name": "Ambon",
    "NameUpper": "AMBON",
    "CurrencyName": "Rupiahs",
    "CurrencyCode": "IDR",
    "Region": null,
    "Continent": null,
    "IsRequiredVisa": false,
    "Latitude": -3.63866650000000000000,
    "Longitude": 128.16885590000000000000,
    "NearAirports": null
  },
  {
    "Code": "AMS",
    "CountryCode": "NL",
    "CountryName": "Netherlands",
    "Name": "Amsterdam",
    "NameUpper": "AMSTERDAM",
    "CurrencyName": "Euro",
    "CurrencyCode": "EUR",
    "Region": null,
    "Continent": null,
    "IsRequiredVisa": false,
    "Latitude": 52.36669690000000000000,
    "Longitude": 4.89453980000000000000,
    "NearAirports": null
  },
  {
    "Code": "ANC",
    "CountryCode": "US",
    "CountryName": "United States",
    "Name": "Anchorage",
    "NameUpper": "ANCHORAGE",
    "CurrencyName": "Dollars",
    "CurrencyCode": "USD",
    "Region": null,
    "Continent": null,
    "IsRequiredVisa": false,
    "Latitude": 61.21805560000000000000,
    "Longitude": -149.90027780000000000000,
    "NearAirports": null
  },
  {
    "Code": "AOR",
    "CountryCode": "MY",
    "CountryName": "Malaysia",
    "Name": "Sultan Abdul Halim",
    "NameUpper": "SULTAN ABDUL HALIM",
    "CurrencyName": "Ringgits",
    "CurrencyCode": "MYR",
    "Region": null,
    "Continent": null,
    "IsRequiredVisa": false,
    "Latitude": 6.19189620000000000000,
    "Longitude": 100.39503310000000000000,
    "NearAirports": null
  },
  {
    "Code": "ARD",
    "CountryCode": "ID",
    "CountryName": "Indonesia",
    "Name": "Alor",
    "NameUpper": "ALOR",
    "CurrencyName": "Rupiahs",
    "CurrencyCode": "IDR",
    "Region": null,
    "Continent": null,
    "IsRequiredVisa": false,
    "Latitude": -8.27540270000000000000,
    "Longitude": 124.72987650000000000000,
    "NearAirports": null
  },
  {
    "Code": "ARN",
    "CountryCode": "SE",
    "CountryName": "Sweden",
    "Name": "Stockholm",
    "NameUpper": "STOCKHOLM",
    "CurrencyName": "Kronor",
    "CurrencyCode": "SEK",
    "Region": null,
    "Continent": null,
    "IsRequiredVisa": false,
    "Latitude": 59.32932350000000000000,
    "Longitude": 18.06858080000000000000,
    "NearAirports": null
  },
  {
    "Code": "ASP",
    "CountryCode": "AU",
    "CountryName": "Australia",
    "Name": "Alice Springs",
    "NameUpper": "ALICE SPRINGS",
    "CurrencyName": "Australian dollar",
    "CurrencyCode": "AUD",
    "Region": null,
    "Continent": null,
    "IsRequiredVisa": false,
    "Latitude": -23.69804200000000000000,
    "Longitude": 133.88074710000000000000,
    "NearAirports": null
  },
  {
    "Code": "ATH",
    "CountryCode": "GR",
    "CountryName": "Greece",
    "Name": "Athens",
    "NameUpper": "ATHENS",
    "CurrencyName": "Euro",
    "CurrencyCode": "EUR",
    "Region": null,
    "Continent": null,
    "IsRequiredVisa": false,
    "Latitude": 37.98380960000000000000,
    "Longitude": 23.72753880000000000000,
    "NearAirports": null
  },
  {
    "Code": "ATL",
    "CountryCode": "US",
    "CountryName": "United States",
    "Name": "Atlanta",
    "NameUpper": "ATLANTA",
    "CurrencyName": "Dollars",
    "CurrencyCode": "USD",
    "Region": null,
    "Continent": null,
    "IsRequiredVisa": false,
    "Latitude": 33.74899540000000000000,
    "Longitude": -84.38798240000000000000,
    "NearAirports": null
  },
  {
    "Code": "ATQ",
    "CountryCode": "IN",
    "CountryName": "India",
    "Name": "Amritsar",
    "NameUpper": "AMRITSAR",
    "CurrencyName": "Rupees",
    "CurrencyCode": "INR",
    "Region": null,
    "Continent": null,
    "IsRequiredVisa": false,
    "Latitude": 31.63397930000000000000,
    "Longitude": 74.87226420000000000000,
    "NearAirports": null
  },
  {
    "Code": "AUH",
    "CountryCode": "AE",
    "CountryName": "United Arab Emirates",
    "Name": "Abu Dhabi",
    "NameUpper": "ABU DHABI",
    "CurrencyName": "UAE Dirham",
    "CurrencyCode": "AED",
    "Region": null,
    "Continent": null,
    "IsRequiredVisa": false,
    "Latitude": 24.45388400000000000000,
    "Longitude": 54.37734380000000000000,
    "NearAirports": null
  },
  {
    "Code": "AUS",
    "CountryCode": "US",
    "CountryName": "United States",
    "Name": "Austin",
    "NameUpper": "AUSTIN",
    "CurrencyName": "Dollars",
    "CurrencyCode": "USD",
    "Region": null,
    "Continent": null,
    "IsRequiredVisa": false,
    "Latitude": 30.26715300000000000000,
    "Longitude": -97.74306080000000000000,
    "NearAirports": null
  },
  {
    "Code": "AVL",
    "CountryCode": "US",
    "CountryName": "United States",
    "Name": "Asheville",
    "NameUpper": "ASHEVILLE",
    "CurrencyName": "Dollars",
    "CurrencyCode": "USD",
    "Region": null,
    "Continent": null,
    "IsRequiredVisa": false,
    "Latitude": 35.59505810000000000000,
    "Longitude": -82.55148690000000000000,
    "NearAirports": null
  },
  {
    "Code": "AYT",
    "CountryCode": "TR",
    "CountryName": "Turkey",
    "Name": "Antalya",
    "NameUpper": "ANTALYA",
    "CurrencyName": "Lira",
    "CurrencyCode": "TRY",
    "Region": null,
    "Continent": null,
    "IsRequiredVisa": false,
    "Latitude": 36.89689080000000000000,
    "Longitude": 30.71332330000000000000,
    "NearAirports": null
  },
  {
    "Code": "BAB",
    "CountryCode": "US",
    "CountryName": "United States",
    "Name": "Marysville",
    "NameUpper": "MARYSVILLE",
    "CurrencyName": "Dollars",
    "CurrencyCode": "USD",
    "Region": null,
    "Continent": null,
    "IsRequiredVisa": false,
    "Latitude": 48.05176370000000000000,
    "Longitude": -122.17708180000000000000,
    "NearAirports": null
  },
  {
    "Code": "BAD",
    "CountryCode": "US",
    "CountryName": "United States",
    "Name": "Bossier City",
    "NameUpper": "BOSSIER CITY",
    "CurrencyName": "Dollars",
    "CurrencyCode": "USD",
    "Region": null,
    "Continent": null,
    "IsRequiredVisa": false,
    "Latitude": 32.51598520000000000000,
    "Longitude": -93.73212280000000000000,
    "NearAirports": null
  },
  {
    "Code": "BAH",
    "CountryCode": "BH",
    "CountryName": "Bahrain",
    "Name": "Manama",
    "NameUpper": "MANAMA",
    "CurrencyName": "Dinar",
    "CurrencyCode": "BHD",
    "Region": null,
    "Continent": null,
    "IsRequiredVisa": false,
    "Latitude": 26.22353050000000000000,
    "Longitude": 50.58759350000000000000,
    "NearAirports": null
  },
  {
    "Code": "BCD",
    "CountryCode": "PH",
    "CountryName": "Philippines",
    "Name": "Bacolod",
    "NameUpper": "BACOLOD",
    "CurrencyName": "Pesos",
    "CurrencyCode": "PHP",
    "Region": null,
    "Continent": null,
    "IsRequiredVisa": false,
    "Latitude": 10.68400530000000000000,
    "Longitude": 122.95630210000000000000,
    "NearAirports": null
  },
  {
    "Code": "BCN",
    "CountryCode": "ES",
    "CountryName": "Spain",
    "Name": "Barcelona",
    "NameUpper": "BARCELONA",
    "CurrencyName": "Euro",
    "CurrencyCode": "EUR",
    "Region": null,
    "Continent": null,
    "IsRequiredVisa": false,
    "Latitude": 41.38506390000000000000,
    "Longitude": 2.17340350000000000000,
    "NearAirports": null
  },
  {
    "Code": "BDJ",
    "CountryCode": "ID",
    "CountryName": "Indonesia",
    "Name": "Banjarmasin",
    "NameUpper": "BANJARMASIN",
    "CurrencyName": "Rupiahs",
    "CurrencyCode": "IDR",
    "Region": null,
    "Continent": null,
    "IsRequiredVisa": false,
    "Latitude": -3.31860670000000000000,
    "Longitude": 114.59437840000000000000,
    "NearAirports": null
  },
  {
    "Code": "BDL",
    "CountryCode": "US",
    "CountryName": "United States",
    "Name": "Hartford",
    "NameUpper": "HARTFORD",
    "CurrencyName": "Dollars",
    "CurrencyCode": "USD",
    "Region": null,
    "Continent": null,
    "IsRequiredVisa": false,
    "Latitude": 41.76580430000000000000,
    "Longitude": -72.67337230000000000000,
    "NearAirports": null
  },
  {
    "Code": "BDO",
    "CountryCode": "ID",
    "CountryName": "Indonesia",
    "Name": "Bandung",
    "NameUpper": "BANDUNG",
    "CurrencyName": "Rupiahs",
    "CurrencyCode": "IDR",
    "Region": null,
    "Continent": null,
    "IsRequiredVisa": false,
    "Latitude": -6.91746390000000000000,
    "Longitude": 107.61912280000000000000,
    "NearAirports": null
  },
  {
    "Code": "BEG",
    "CountryCode": "CS",
    "CountryName": "Serbia & Montenegro",
    "Name": "Belgrade",
    "NameUpper": "BELGRADE",
    "CurrencyName": "Dinar serbia",
    "CurrencyCode": "EURO",
    "Region": null,
    "Continent": null,
    "IsRequiredVisa": false,
    "Latitude": 44.78656800000000000000,
    "Longitude": 20.44892160000000000000,
    "NearAirports": null
  },
  {
    "Code": "BEJ",
    "CountryCode": "ID",
    "CountryName": "Indonesia",
    "Name": "Berau",
    "NameUpper": "BERAU",
    "CurrencyName": "Rupiahs",
    "CurrencyCode": "IDR",
    "Region": null,
    "Continent": null,
    "IsRequiredVisa": false,
    "Latitude": 2.04508830000000000000,
    "Longitude": 117.36164760000000000000,
    "NearAirports": null
  },
  {
    "Code": "BEL",
    "CountryCode": "BR",
    "CountryName": "Brazil",
    "Name": "Belém",
    "NameUpper": "BELÉM",
    "CurrencyName": "Reais",
    "CurrencyCode": "BRL",
    "Region": null,
    "Continent": null,
    "IsRequiredVisa": false,
    "Latitude": -1.45572920000000000000,
    "Longitude": -48.49017850000000000000,
    "NearAirports": null
  },
  {
    "Code": "BEW",
    "CountryCode": "MZ",
    "CountryName": "Mozambique",
    "Name": "Beira",
    "NameUpper": "BEIRA",
    "CurrencyName": "Meticais",
    "CurrencyCode": "MZN",
    "Region": null,
    "Continent": null,
    "IsRequiredVisa": false,
    "Latitude": -19.83159490000000000000,
    "Longitude": 34.83701830000000000000,
    "NearAirports": null
  },
  {
    "Code": "BEY",
    "CountryCode": "LB",
    "CountryName": "Lebanon",
    "Name": "Beirut",
    "NameUpper": "BEIRUT",
    "CurrencyName": "Pounds",
    "CurrencyCode": "LBP",
    "Region": null,
    "Continent": null,
    "IsRequiredVisa": false,
    "Latitude": 33.89379130000000000000,
    "Longitude": 35.50177670000000000000,
    "NearAirports": null
  },
  {
    "Code": "BFL",
    "CountryCode": "US",
    "CountryName": "United States",
    "Name": "Bakersfield",
    "NameUpper": "BAKERSFIELD",
    "CurrencyName": "Dollars",
    "CurrencyCode": "USD",
    "Region": null,
    "Continent": null,
    "IsRequiredVisa": false,
    "Latitude": 35.37329210000000000000,
    "Longitude": -119.01871250000000000000,
    "NearAirports": null
  },
  {
    "Code": "BFS",
    "CountryCode": "GB",
    "CountryName": "United Kingdom",
    "Name": "Belfast",
    "NameUpper": "BELFAST",
    "CurrencyName": "Pound sterling",
    "CurrencyCode": "GBP",
    "Region": null,
    "Continent": null,
    "IsRequiredVisa": false,
    "Latitude": 54.59728500000000000000,
    "Longitude": -5.93012000000000000000,
    "NearAirports": null
  },
  {
    "Code": "BFV",
    "CountryCode": "TH",
    "CountryName": "Thailand",
    "Name": "Buriram",
    "NameUpper": "BURIRAM",
    "CurrencyName": "Baht",
    "CurrencyCode": "THB",
    "Region": null,
    "Continent": null,
    "IsRequiredVisa": false,
    "Latitude": 14.99510030000000000000,
    "Longitude": 103.11159150000000000000,
    "NearAirports": null
  },
  {
    "Code": "BGO",
    "CountryCode": "NO",
    "CountryName": "Norway",
    "Name": "Bergen",
    "NameUpper": "BERGEN",
    "CurrencyName": "Krone",
    "CurrencyCode": "NOK",
    "Region": null,
    "Continent": null,
    "IsRequiredVisa": false,
    "Latitude": 60.39126280000000000000,
    "Longitude": 5.32205440000000000000,
    "NearAirports": null
  },
  {
    "Code": "BGR",
    "CountryCode": "US",
    "CountryName": "United States",
    "Name": "Bangor",
    "NameUpper": "BANGOR",
    "CurrencyName": "Dollars",
    "CurrencyCode": "USD",
    "Region": null,
    "Continent": null,
    "IsRequiredVisa": false,
    "Latitude": 44.80161280000000000000,
    "Longitude": -68.77122570000000000000,
    "NearAirports": null
  },
  {
    "Code": "BGW",
    "CountryCode": "IQ",
    "CountryName": "Iraq",
    "Name": "Baghdad",
    "NameUpper": "BAGHDAD",
    "CurrencyName": "Iraqi Dinar",
    "CurrencyCode": "IQD",
    "Region": null,
    "Continent": null,
    "IsRequiredVisa": false,
    "Latitude": 33.31524100000000000000,
    "Longitude": 44.36606710000000000000,
    "NearAirports": null
  },
  {
    "Code": "BGY",
    "CountryCode": "IT",
    "CountryName": "Italy",
    "Name": "Bergamo",
    "NameUpper": "BERGAMO",
    "CurrencyName": "Euro",
    "CurrencyCode": "EUR",
    "Region": null,
    "Continent": null,
    "IsRequiredVisa": false,
    "Latitude": 45.69826420000000000000,
    "Longitude": 9.67726980000000000000,
    "NearAirports": null
  },
  {
    "Code": "BHM",
    "CountryCode": "US",
    "CountryName": "United States",
    "Name": "Birmingham",
    "NameUpper": "BIRMINGHAM",
    "CurrencyName": "Dollars",
    "CurrencyCode": "USD",
    "Region": null,
    "Continent": null,
    "IsRequiredVisa": false,
    "Latitude": 33.51858920000000000000,
    "Longitude": -86.81035670000000000000,
    "NearAirports": null
  },
  {
    "Code": "BIK",
    "CountryCode": "ID",
    "CountryName": "Indonesia",
    "Name": "Biak",
    "NameUpper": "BIAK",
    "CurrencyName": "Rupiahs",
    "CurrencyCode": "IDR",
    "Region": null,
    "Continent": null,
    "IsRequiredVisa": false,
    "Latitude": -1.03810220000000000000,
    "Longitude": 135.98008480000000000000,
    "NearAirports": null
  },
  {
    "Code": "BIL",
    "CountryCode": "US",
    "CountryName": "United States",
    "Name": "Billings",
    "NameUpper": "BILLINGS",
    "CurrencyName": "Dollars",
    "CurrencyCode": "USD",
    "Region": null,
    "Continent": null,
    "IsRequiredVisa": false,
    "Latitude": 45.78328560000000000000,
    "Longitude": -108.50069040000000000000,
    "NearAirports": null
  },
  {
    "Code": "BJK",
    "CountryCode": "ID",
    "CountryName": "Indonesia",
    "Name": "Benjina",
    "NameUpper": "BENJINA",
    "CurrencyName": "Rupiahs",
    "CurrencyCode": "IDR",
    "Region": null,
    "Continent": null,
    "IsRequiredVisa": false,
    "Latitude": -6.14793990000000000000,
    "Longitude": 134.31419300000000000000,
    "NearAirports": null
  },
  {
    "Code": "BJV",
    "CountryCode": "TR",
    "CountryName": "Turkey",
    "Name": "Bodrum",
    "NameUpper": "BODRUM",
    "CurrencyName": "Lira",
    "CurrencyCode": "TRY",
    "Region": null,
    "Continent": null,
    "IsRequiredVisa": false,
    "Latitude": 37.03440700000000000000,
    "Longitude": 27.43054000000000000000,
    "NearAirports": null
  },
  {
    "Code": "BJW",
    "CountryCode": "ID",
    "CountryName": "Indonesia",
    "Name": "Bajawa",
    "NameUpper": "BAJAWA",
    "CurrencyName": "Rupiahs",
    "CurrencyCode": "IDR",
    "Region": null,
    "Continent": null,
    "IsRequiredVisa": false,
    "Latitude": -8.80326660000000000000,
    "Longitude": 120.96468660000000000000,
    "NearAirports": null
  },
  {
    "Code": "BKI",
    "CountryCode": "MY",
    "CountryName": "Malaysia",
    "Name": "Kota Kinabalu",
    "NameUpper": "KOTA KINABALU",
    "CurrencyName": "Ringgits",
    "CurrencyCode": "MYR",
    "Region": null,
    "Continent": null,
    "IsRequiredVisa": false,
    "Latitude": 5.98040800000000000000,
    "Longitude": 116.07345680000000000000,
    "NearAirports": null
  },
  {
    "Code": "BKS",
    "CountryCode": "ID",
    "CountryName": "Indonesia",
    "Name": "Bengkulu",
    "NameUpper": "BENGKULU",
    "CurrencyName": "Rupiahs",
    "CurrencyCode": "IDR",
    "Region": null,
    "Continent": null,
    "IsRequiredVisa": false,
    "Latitude": -3.79284510000000000000,
    "Longitude": 102.26076410000000000000,
    "NearAirports": null
  },
  {
    "Code": "BKSS",
    "CountryCode": "ID",
    "CountryName": "Indonesia",
    "Name": "Bekasi",
    "NameUpper": "BEKASI",
    "CurrencyName": "Rupiahs",
    "CurrencyCode": "IDR",
    "Region": null,
    "Continent": null,
    "IsRequiredVisa": false,
    "Latitude": -6.23826990000000000000,
    "Longitude": 106.97557260000000000000,
    "NearAirports": null
  },
  {
    "Code": "BLL",
    "CountryCode": "DK",
    "CountryName": "Denmark",
    "Name": "Billund",
    "NameUpper": "BILLUND",
    "CurrencyName": "Kroner",
    "CurrencyCode": "DKK",
    "Region": null,
    "Continent": null,
    "IsRequiredVisa": false,
    "Latitude": 55.72844900000000000000,
    "Longitude": 9.11236600000000000000,
    "NearAirports": null
  },
  {
    "Code": "BLQ",
    "CountryCode": "IT",
    "CountryName": "Italy",
    "Name": "Bologna",
    "NameUpper": "BOLOGNA",
    "CurrencyName": "Euro",
    "CurrencyCode": "EUR",
    "Region": null,
    "Continent": null,
    "IsRequiredVisa": false,
    "Latitude": 44.49488700000000000000,
    "Longitude": 11.34261620000000000000,
    "NearAirports": null
  },
  {
    "Code": "BLR",
    "CountryCode": "IN",
    "CountryName": "India",
    "Name": "Bangalore",
    "NameUpper": "BANGALORE",
    "CurrencyName": "Rupees",
    "CurrencyCode": "INR",
    "Region": null,
    "Continent": null,
    "IsRequiredVisa": false,
    "Latitude": 12.97159870000000000000,
    "Longitude": 77.59456270000000000000,
    "NearAirports": null
  },
  {
    "Code": "BLV",
    "CountryCode": "US",
    "CountryName": "United States",
    "Name": "Belleville",
    "NameUpper": "BELLEVILLE",
    "CurrencyName": "Dollars",
    "CurrencyCode": "USD",
    "Region": null,
    "Continent": null,
    "IsRequiredVisa": false,
    "Latitude": 38.52005040000000000000,
    "Longitude": -89.98399350000000000000,
    "NearAirports": null
  },
  {
    "Code": "BMI",
    "CountryCode": "US",
    "CountryName": "United States",
    "Name": "Bloomington/normal",
    "NameUpper": "BLOOMINGTON/NORMAL",
    "CurrencyName": "Dollars",
    "CurrencyCode": "USD",
    "Region": null,
    "Continent": null,
    "IsRequiredVisa": false,
    "Latitude": 40.48420270000000000000,
    "Longitude": -88.99368730000000000000,
    "NearAirports": null
  },
  {
    "Code": "BMU",
    "CountryCode": "ID",
    "CountryName": "Indonesia",
    "Name": "Bima",
    "NameUpper": "BIMA",
    "CurrencyName": "Rupiahs",
    "CurrencyCode": "IDR",
    "Region": null,
    "Continent": null,
    "IsRequiredVisa": false,
    "Latitude": -8.46426610000000000000,
    "Longitude": 118.74490280000000000000,
    "NearAirports": null
  },
  {
    "Code": "BMV",
    "CountryCode": "VN",
    "CountryName": "Viet Nam",
    "Name": "Buon Me Thuot",
    "NameUpper": "BUON ME THUOT",
    "CurrencyName": "Dong",
    "CurrencyCode": "VND",
    "Region": null,
    "Continent": null,
    "IsRequiredVisa": false,
    "Latitude": 12.66619440000000000000,
    "Longitude": 108.03824750000000000000,
    "NearAirports": null
  },
  {
    "Code": "BNA",
    "CountryCode": "US",
    "CountryName": "United States",
    "Name": "Nashville",
    "NameUpper": "NASHVILLE",
    "CurrencyName": "Dollars",
    "CurrencyCode": "USD",
    "Region": null,
    "Continent": null,
    "IsRequiredVisa": false,
    "Latitude": 36.16266380000000000000,
    "Longitude": -86.78160160000000000000,
    "NearAirports": null
  },
  {
    "Code": "BNE",
    "CountryCode": "AU",
    "CountryName": "Australia",
    "Name": "Brisbane",
    "NameUpper": "BRISBANE",
    "CurrencyName": "Australian dollar",
    "CurrencyCode": "AUD",
    "Region": null,
    "Continent": null,
    "IsRequiredVisa": false,
    "Latitude": -27.46977070000000000000,
    "Longitude": 153.02512350000000000000,
    "NearAirports": null
  },
  {
    "Code": "BOD",
    "CountryCode": "FR",
    "CountryName": "France",
    "Name": "Bordeaux/merignac",
    "NameUpper": "BORDEAUX/MERIGNAC",
    "CurrencyName": "Euro",
    "CurrencyCode": "EUR",
    "Region": null,
    "Continent": null,
    "IsRequiredVisa": false,
    "Latitude": 44.84487690000000000000,
    "Longitude": -0.65635800000000000000,
    "NearAirports": null
  },
  {
    "Code": "BOG",
    "CountryCode": "CO",
    "CountryName": "Colombia",
    "Name": "Bogota",
    "NameUpper": "BOGOTA",
    "CurrencyName": "Pesos",
    "CurrencyCode": "COP",
    "Region": null,
    "Continent": null,
    "IsRequiredVisa": false,
    "Latitude": 4.71098860000000000000,
    "Longitude": -74.07209200000000000000,
    "NearAirports": null
  },
  {
    "Code": "BOGOR",
    "CountryCode": "ID",
    "CountryName": "Indonesia",
    "Name": "Bogor",
    "NameUpper": "BOGOR",
    "CurrencyName": "Rupiahs",
    "CurrencyCode": "IDR",
    "Region": null,
    "Continent": null,
    "IsRequiredVisa": false,
    "Latitude": -6.59714690000000000000,
    "Longitude": 106.80603880000000000000,
    "NearAirports": null
  },
  {
    "Code": "BOH",
    "CountryCode": "GB",
    "CountryName": "United Kingdom",
    "Name": "Bournemouth",
    "NameUpper": "BOURNEMOUTH",
    "CurrencyName": "Pound sterling",
    "CurrencyCode": "GBP",
    "Region": null,
    "Continent": null,
    "IsRequiredVisa": false,
    "Latitude": 50.71916400000000000000,
    "Longitude": -1.88076900000000000000,
    "NearAirports": null
  },
  {
    "Code": "BOI",
    "CountryCode": "US",
    "CountryName": "United States",
    "Name": "Boise",
    "NameUpper": "BOISE",
    "CurrencyName": "Dollars",
    "CurrencyCode": "USD",
    "Region": null,
    "Continent": null,
    "IsRequiredVisa": false,
    "Latitude": 43.61501860000000000000,
    "Longitude": -116.20231370000000000000,
    "NearAirports": null
  },
  {
    "Code": "BOJ",
    "CountryCode": "BG",
    "CountryName": "Bulgaria",
    "Name": "Burgas",
    "NameUpper": "BURGAS",
    "CurrencyName": "Leva",
    "CurrencyCode": "BGN",
    "Region": null,
    "Continent": null,
    "IsRequiredVisa": false,
    "Latitude": 42.50479260000000000000,
    "Longitude": 27.46263610000000000000,
    "NearAirports": null
  },
  {
    "Code": "BOM",
    "CountryCode": "IN",
    "CountryName": "India",
    "Name": "Mumbai",
    "NameUpper": "MUMBAI",
    "CurrencyName": "Rupees",
    "CurrencyCode": "INR",
    "Region": null,
    "Continent": null,
    "IsRequiredVisa": false,
    "Latitude": 19.07598370000000000000,
    "Longitude": 72.87765590000000000000,
    "NearAirports": null
  },
  {
    "Code": "BOO",
    "CountryCode": "NO",
    "CountryName": "Norway",
    "Name": "Bodø",
    "NameUpper": "BODØ",
    "CurrencyName": "Krone",
    "CurrencyCode": "NOK",
    "Region": null,
    "Continent": null,
    "IsRequiredVisa": false,
    "Latitude": 67.28291850000000000000,
    "Longitude": 14.41507740000000000000,
    "NearAirports": null
  },
  {
    "Code": "BOS",
    "CountryCode": "US",
    "CountryName": "United States",
    "Name": "Boston",
    "NameUpper": "BOSTON",
    "CurrencyName": "Dollars",
    "CurrencyCode": "USD",
    "Region": null,
    "Continent": null,
    "IsRequiredVisa": false,
    "Latitude": 42.36008250000000000000,
    "Longitude": -71.05888010000000000000,
    "NearAirports": null
  },
  {
    "Code": "BPN",
    "CountryCode": "ID",
    "CountryName": "Indonesia",
    "Name": "Balikpapan",
    "NameUpper": "BALIKPAPAN",
    "CurrencyName": "Rupiahs",
    "CurrencyCode": "IDR",
    "Region": null,
    "Continent": null,
    "IsRequiredVisa": false,
    "Latitude": -1.23792740000000000000,
    "Longitude": 116.85285260000000000000,
    "NearAirports": null
  },
  {
    "Code": "BRE",
    "CountryCode": "DE",
    "CountryName": "Germany",
    "Name": "Bremen",
    "NameUpper": "BREMEN",
    "CurrencyName": "Euro",
    "CurrencyCode": "EUR",
    "Region": null,
    "Continent": null,
    "IsRequiredVisa": false,
    "Latitude": 53.07929620000000000000,
    "Longitude": 8.80169360000000000000,
    "NearAirports": null
  },
  {
    "Code": "BRI",
    "CountryCode": "IT",
    "CountryName": "Italy",
    "Name": "Bari",
    "NameUpper": "BARI",
    "CurrencyName": "Euro",
    "CurrencyCode": "EUR",
    "Region": null,
    "Continent": null,
    "IsRequiredVisa": false,
    "Latitude": 41.11714320000000000000,
    "Longitude": 16.87187150000000000000,
    "NearAirports": null
  },
  {
    "Code": "BRS",
    "CountryCode": "GB",
    "CountryName": "United Kingdom",
    "Name": "Bristol",
    "NameUpper": "BRISTOL",
    "CurrencyName": "Pound sterling",
    "CurrencyCode": "GBP",
    "Region": null,
    "Continent": null,
    "IsRequiredVisa": false,
    "Latitude": 51.45451300000000000000,
    "Longitude": -2.58791000000000000000,
    "NearAirports": null
  },
  {
    "Code": "BRU",
    "CountryCode": "BE",
    "CountryName": "Belgium",
    "Name": "Brussels",
    "NameUpper": "BRUSSELS",
    "CurrencyName": "Euro",
    "CurrencyCode": "EUR",
    "Region": null,
    "Continent": null,
    "IsRequiredVisa": false,
    "Latitude": 50.85033960000000000000,
    "Longitude": 4.35171030000000000000,
    "NearAirports": null
  },
  {
    "Code": "BSB",
    "CountryCode": "BR",
    "CountryName": "Brazil",
    "Name": "Brasilia",
    "NameUpper": "BRASILIA",
    "CurrencyName": "Reais",
    "CurrencyCode": "BRL",
    "Region": null,
    "Continent": null,
    "IsRequiredVisa": false,
    "Latitude": -15.82669100000000000000,
    "Longitude": -47.92182040000000000000,
    "NearAirports": null
  },
  {
    "Code": "BSL",
    "CountryCode": "FR",
    "CountryName": "France",
    "Name": "Basel",
    "NameUpper": "BASEL",
    "CurrencyName": "Euro",
    "CurrencyCode": "EUR",
    "Region": null,
    "Continent": null,
    "IsRequiredVisa": false,
    "Latitude": 47.58853880000000000000,
    "Longitude": 7.58976930000000000000,
    "NearAirports": null
  },
  {
    "Code": "BSR",
    "CountryCode": "IQ",
    "CountryName": "Iraq",
    "Name": "Basrah",
    "NameUpper": "BASRAH",
    "CurrencyName": "Iraqi Dinar",
    "CurrencyCode": "IQD",
    "Region": null,
    "Continent": null,
    "IsRequiredVisa": false,
    "Latitude": 30.52576570000000000000,
    "Longitude": 47.77379700000000000000,
    "NearAirports": null
  },
  {
    "Code": "BTH",
    "CountryCode": "ID",
    "CountryName": "Indonesia",
    "Name": "Batam",
    "NameUpper": "BATAM",
    "CurrencyName": "Rupiahs",
    "CurrencyCode": "IDR",
    "Region": null,
    "Continent": null,
    "IsRequiredVisa": false,
    "Latitude": 1.13007790000000000000,
    "Longitude": 104.05292070000000000000,
    "NearAirports": null
  },
  {
    "Code": "BTJ",
    "CountryCode": "ID",
    "CountryName": "Indonesia",
    "Name": "Banda Aceh",
    "NameUpper": "BANDA ACEH",
    "CurrencyName": "Rupiahs",
    "CurrencyCode": "IDR",
    "Region": null,
    "Continent": null,
    "IsRequiredVisa": false,
    "Latitude": 5.54829040000000000000,
    "Longitude": 95.32375590000000000000,
    "NearAirports": null
  },
  {
    "Code": "BTR",
    "CountryCode": "US",
    "CountryName": "United States",
    "Name": "Baton Rouge",
    "NameUpper": "BATON ROUGE",
    "CurrencyName": "Dollars",
    "CurrencyCode": "USD",
    "Region": null,
    "Continent": null,
    "IsRequiredVisa": false,
    "Latitude": 30.45146770000000000000,
    "Longitude": -91.18714660000000000000,
    "NearAirports": null
  },
  {
    "Code": "BTS",
    "CountryCode": "SK",
    "CountryName": "Slovakia",
    "Name": "Bratislava",
    "NameUpper": "BRATISLAVA",
    "CurrencyName": "Euro",
    "CurrencyCode": "EUR",
    "Region": null,
    "Continent": null,
    "IsRequiredVisa": false,
    "Latitude": 48.14859650000000000000,
    "Longitude": 17.10774780000000000000,
    "NearAirports": null
  },
  {
    "Code": "BTU",
    "CountryCode": "MY",
    "CountryName": "Malaysia",
    "Name": "Bintulu",
    "NameUpper": "BINTULU",
    "CurrencyName": "Ringgits",
    "CurrencyCode": "MYR",
    "Region": null,
    "Continent": null,
    "IsRequiredVisa": false,
    "Latitude": 3.17132200000000000000,
    "Longitude": 113.04190690000000000000,
    "NearAirports": null
  },
  {
    "Code": "BTW",
    "CountryCode": "ID",
    "CountryName": "Indonesia",
    "Name": "Batu Licin",
    "NameUpper": "BATU LICIN",
    "CurrencyName": "Rupiahs",
    "CurrencyCode": "IDR",
    "Region": null,
    "Continent": null,
    "IsRequiredVisa": false,
    "Latitude": -3.45788240000000000000,
    "Longitude": 115.97045030000000000000,
    "NearAirports": null
  },
  {
    "Code": "BUD",
    "CountryCode": "HU",
    "CountryName": "Hungary",
    "Name": "Budapest",
    "NameUpper": "BUDAPEST",
    "CurrencyName": "Forint",
    "CurrencyCode": "HUF",
    "Region": null,
    "Continent": null,
    "IsRequiredVisa": false,
    "Latitude": 47.49791200000000000000,
    "Longitude": 19.04023500000000000000,
    "NearAirports": null
  },
  {
    "Code": "BUF",
    "CountryCode": "US",
    "CountryName": "United States",
    "Name": "Buffalo",
    "NameUpper": "BUFFALO",
    "CurrencyName": "Dollars",
    "CurrencyCode": "USD",
    "Region": null,
    "Continent": null,
    "IsRequiredVisa": false,
    "Latitude": 42.88644680000000000000,
    "Longitude": -78.87836890000000000000,
    "NearAirports": null
  },
  {
    "Code": "BUU",
    "CountryCode": "ID",
    "CountryName": "Indonesia",
    "Name": "Muara Bungo",
    "NameUpper": "MUARA BUNGO",
    "CurrencyName": "Rupiahs",
    "CurrencyCode": "IDR",
    "Region": null,
    "Continent": null,
    "IsRequiredVisa": false,
    "Latitude": -1.49162970000000000000,
    "Longitude": 102.13468740000000000000,
    "NearAirports": null
  },
  {
    "Code": "BUW",
    "CountryCode": "ID",
    "CountryName": "Indonesia",
    "Name": "Baubau",
    "NameUpper": "BAUBAU",
    "CurrencyName": "Rupiahs",
    "CurrencyCode": "IDR",
    "Region": null,
    "Continent": null,
    "IsRequiredVisa": false,
    "Latitude": -5.50707800000000000000,
    "Longitude": 122.59690100000000000000,
    "NearAirports": null
  },
  {
    "Code": "BWI",
    "CountryCode": "US",
    "CountryName": "United States",
    "Name": "Baltimore",
    "NameUpper": "BALTIMORE",
    "CurrencyName": "Dollars",
    "CurrencyCode": "USD",
    "Region": null,
    "Continent": null,
    "IsRequiredVisa": false,
    "Latitude": 39.29038480000000000000,
    "Longitude": -76.61218930000000000000,
    "NearAirports": null
  },
  {
    "Code": "BWN",
    "CountryCode": "BN",
    "CountryName": "Brunei Darussalam",
    "Name": "Bandar Seri Begawan",
    "NameUpper": "BANDAR SERI BEGAWAN",
    "CurrencyName": "Dollars",
    "CurrencyCode": "BND",
    "Region": null,
    "Continent": null,
    "IsRequiredVisa": false,
    "Latitude": 4.90305220000000000000,
    "Longitude": 114.93982100000000000000,
    "NearAirports": null
  },
  {
    "Code": "BWU",
    "CountryCode": "AU",
    "CountryName": "Australia",
    "Name": "Bankstown",
    "NameUpper": "BANKSTOWN",
    "CurrencyName": "Australian dollar",
    "CurrencyCode": "AUD",
    "Region": null,
    "Continent": null,
    "IsRequiredVisa": false,
    "Latitude": -33.91817000000000000000,
    "Longitude": 151.03497000000000000000,
    "NearAirports": null
  },
  {
    "Code": "BWX",
    "CountryCode": "ID",
    "CountryName": "Indonesia",
    "Name": "Banyuwangi",
    "NameUpper": "BANYUWANGI",
    "CurrencyName": "Rupiahs",
    "CurrencyCode": "IDR",
    "Region": null,
    "Continent": null,
    "IsRequiredVisa": false,
    "Latitude": -8.21923350000000000000,
    "Longitude": 114.36922670000000000000,
    "NearAirports": null
  },
  {
    "Code": "BXT",
    "CountryCode": "ID",
    "CountryName": "Indonesia",
    "Name": "Bontang",
    "NameUpper": "BONTANG",
    "CurrencyName": "Rupiahs",
    "CurrencyCode": "IDR",
    "Region": null,
    "Continent": null,
    "IsRequiredVisa": false,
    "Latitude": 0.12086300000000000000,
    "Longitude": 117.48004450000000000000,
    "NearAirports": null
  },
  {
    "Code": "BXU",
    "CountryCode": "PH",
    "CountryName": "Philippines",
    "Name": "Butuan",
    "NameUpper": "BUTUAN",
    "CurrencyName": "Pesos",
    "CurrencyCode": "PHP",
    "Region": null,
    "Continent": null,
    "IsRequiredVisa": false,
    "Latitude": 8.94753770000000000000,
    "Longitude": 125.54062340000000000000,
    "NearAirports": null
  },
  {
    "Code": "BZE",
    "CountryCode": "BZ",
    "CountryName": "Belize",
    "Name": "Belize City",
    "NameUpper": "BELIZE CITY",
    "CurrencyName": "Dollars",
    "CurrencyCode": "BZD",
    "Region": null,
    "Continent": null,
    "IsRequiredVisa": false,
    "Latitude": 17.50456610000000000000,
    "Longitude": -88.19621330000000000000,
    "NearAirports": null
  },
  {
    "Code": "BZZ",
    "CountryCode": "GB",
    "CountryName": "United Kingdom",
    "Name": "Brize Norton",
    "NameUpper": "BRIZE NORTON",
    "CurrencyName": "Pound sterling",
    "CurrencyCode": "GBP",
    "Region": null,
    "Continent": null,
    "IsRequiredVisa": false,
    "Latitude": 51.76765800000000000000,
    "Longitude": -1.56676700000000000000,
    "NearAirports": null
  },
  {
    "Code": "CAE",
    "CountryCode": "US",
    "CountryName": "United States",
    "Name": "Columbia",
    "NameUpper": "COLUMBIA",
    "CurrencyName": "Dollars",
    "CurrencyCode": "USD",
    "Region": null,
    "Continent": null,
    "IsRequiredVisa": false,
    "Latitude": 34.00071040000000000000,
    "Longitude": -81.03481440000000000000,
    "NearAirports": null
  },
  {
    "Code": "CAG",
    "CountryCode": "IT",
    "CountryName": "Italy",
    "Name": "Cagliari",
    "NameUpper": "CAGLIARI",
    "CurrencyName": "Euro",
    "CurrencyCode": "EUR",
    "Region": null,
    "Continent": null,
    "IsRequiredVisa": false,
    "Latitude": 39.22384110000000000000,
    "Longitude": 9.12166130000000000000,
    "NearAirports": null
  },
  {
    "Code": "CAH",
    "CountryCode": "VN",
    "CountryName": "Viet Nam",
    "Name": "Ca Mau",
    "NameUpper": "CA MAU",
    "CurrencyName": "Dong",
    "CurrencyCode": "VND",
    "Region": null,
    "Continent": null,
    "IsRequiredVisa": false,
    "Latitude": 9.15267280000000000000,
    "Longitude": 105.19607950000000000000,
    "NearAirports": null
  },
  {
    "Code": "CAI",
    "CountryCode": "EG",
    "CountryName": "Egypt",
    "Name": "Cairo",
    "NameUpper": "CAIRO",
    "CurrencyName": "Pounds",
    "CurrencyCode": "EGP",
    "Region": null,
    "Continent": null,
    "IsRequiredVisa": false,
    "Latitude": 30.04441960000000000000,
    "Longitude": 31.23571160000000000000,
    "NearAirports": null
  },
  {
    "Code": "CAN",
    "CountryCode": "CN",
    "CountryName": "China",
    "Name": "Guangzhou",
    "NameUpper": "GUANGZHOU",
    "CurrencyName": "Yuan Renminbi",
    "CurrencyCode": "CNY",
    "Region": null,
    "Continent": null,
    "IsRequiredVisa": false,
    "Latitude": 23.12911000000000000000,
    "Longitude": 113.26438500000000000000,
    "NearAirports": null
  },
  {
    "Code": "CBN",
    "CountryCode": "ID",
    "CountryName": "Indonesia",
    "Name": "Cirebon",
    "NameUpper": "CIREBON",
    "CurrencyName": "Rupiahs",
    "CurrencyCode": "IDR",
    "Region": null,
    "Continent": null,
    "IsRequiredVisa": false,
    "Latitude": -6.73202290000000000000,
    "Longitude": 108.55231640000000000000,
    "NearAirports": null
  },
  {
    "Code": "CBO",
    "CountryCode": "PH",
    "CountryName": "Philippines",
    "Name": "Cotabato",
    "NameUpper": "COTABATO",
    "CurrencyName": "Pesos",
    "CurrencyCode": "PHP",
    "Region": null,
    "Continent": null,
    "IsRequiredVisa": false,
    "Latitude": 7.20466680000000000000,
    "Longitude": 124.23104390000000000000,
    "NearAirports": null
  },
  {
    "Code": "CBR",
    "CountryCode": "AU",
    "CountryName": "Australia",
    "Name": "Canberra",
    "NameUpper": "CANBERRA",
    "CurrencyName": "Australian dollar",
    "CurrencyCode": "AUD",
    "Region": null,
    "Continent": null,
    "IsRequiredVisa": false,
    "Latitude": -35.28093680000000000000,
    "Longitude": 149.13000920000000000000,
    "NearAirports": null
  },
  {
    "Code": "CCJ",
    "CountryCode": "IN",
    "CountryName": "India",
    "Name": "Calicut",
    "NameUpper": "CALICUT",
    "CurrencyName": "Rupees",
    "CurrencyCode": "INR",
    "Region": null,
    "Continent": null,
    "IsRequiredVisa": false,
    "Latitude": 11.25875310000000000000,
    "Longitude": 75.78041000000000000000,
    "NearAirports": null
  },
  {
    "Code": "CCK",
    "CountryCode": "AU",
    "CountryName": "Australia",
    "Name": "Cocos (keeling)",
    "NameUpper": "COCOS (KEELING)",
    "CurrencyName": "Australian dollar",
    "CurrencyCode": "AUD",
    "Region": null,
    "Continent": null,
    "IsRequiredVisa": false,
    "Latitude": -12.16416500000000000000,
    "Longitude": 96.87095600000000000000,
    "NearAirports": null
  },
  {
    "Code": "CCU",
    "CountryCode": "IN",
    "CountryName": "India",
    "Name": "Kolkata",
    "NameUpper": "KOLKATA",
    "CurrencyName": "Rupees",
    "CurrencyCode": "INR",
    "Region": null,
    "Continent": null,
    "IsRequiredVisa": false,
    "Latitude": 22.57264600000000000000,
    "Longitude": 88.36389500000000000000,
    "NearAirports": null
  },
  {
    "Code": "CDG",
    "CountryCode": "FR",
    "CountryName": "France",
    "Name": "Paris",
    "NameUpper": "PARIS",
    "CurrencyName": "Euro",
    "CurrencyCode": "EUR",
    "Region": null,
    "Continent": null,
    "IsRequiredVisa": false,
    "Latitude": 48.85661400000000000000,
    "Longitude": 2.35222190000000000000,
    "NearAirports": null
  },
  {
    "Code": "CEB",
    "CountryCode": "PH",
    "CountryName": "Philippines",
    "Name": "Lapu-lapu City",
    "NameUpper": "LAPU-LAPU CITY",
    "CurrencyName": "Pesos",
    "CurrencyCode": "PHP",
    "Region": null,
    "Continent": null,
    "IsRequiredVisa": false,
    "Latitude": 10.26618220000000000000,
    "Longitude": 123.99729500000000000000,
    "NearAirports": null
  },
  {
    "Code": "CEI",
    "CountryCode": "TH",
    "CountryName": "Thailand",
    "Name": "Chiang Rai",
    "NameUpper": "CHIANG RAI",
    "CurrencyName": "Baht",
    "CurrencyCode": "THB",
    "Region": null,
    "Continent": null,
    "IsRequiredVisa": false,
    "Latitude": 19.91047980000000000000,
    "Longitude": 99.84057600000000000000,
    "NearAirports": null
  },
  {
    "Code": "CGK",
    "CountryCode": "ID",
    "CountryName": "Indonesia",
    "Name": "Jakarta",
    "NameUpper": "JAKARTA",
    "CurrencyName": "Rupiahs",
    "CurrencyCode": "IDR",
    "Region": null,
    "Continent": null,
    "IsRequiredVisa": false,
    "Latitude": -6.20876340000000000000,
    "Longitude": 106.84559900000000000000,
    "NearAirports": null
  },
  {
    "Code": "CGM",
    "CountryCode": "PH",
    "CountryName": "Philippines",
    "Name": "Camiguin",
    "NameUpper": "CAMIGUIN",
    "CurrencyName": "Pesos",
    "CurrencyCode": "PHP",
    "Region": null,
    "Continent": null,
    "IsRequiredVisa": false,
    "Latitude": 9.17321640000000000000,
    "Longitude": 124.72987650000000000000,
    "NearAirports": null
  },
  {
    "Code": "CGN",
    "CountryCode": "DE",
    "CountryName": "Germany",
    "Name": "Cologne",
    "NameUpper": "COLOGNE",
    "CurrencyName": "Euro",
    "CurrencyCode": "EUR",
    "Region": null,
    "Continent": null,
    "IsRequiredVisa": false,
    "Latitude": 50.93753100000000000000,
    "Longitude": 6.96027860000000000000,
    "NearAirports": null
  },
  {
    "Code": "CGO",
    "CountryCode": "CN",
    "CountryName": "China",
    "Name": "Zhengzhou",
    "NameUpper": "ZHENGZHOU",
    "CurrencyName": "Yuan Renminbi",
    "CurrencyCode": "CNY",
    "Region": null,
    "Continent": null,
    "IsRequiredVisa": false,
    "Latitude": 34.74661100000000000000,
    "Longitude": 113.62532800000000000000,
    "NearAirports": null
  },
  {
    "Code": "CGP",
    "CountryCode": "BD",
    "CountryName": "Bangladesh",
    "Name": "Chittagong",
    "NameUpper": "CHITTAGONG",
    "CurrencyName": "Taka",
    "CurrencyCode": "BDT",
    "Region": null,
    "Continent": null,
    "IsRequiredVisa": false,
    "Latitude": 22.35685100000000000000,
    "Longitude": 91.78318190000000000000,
    "NearAirports": null
  },
  {
    "Code": "CGY",
    "CountryCode": "PH",
    "CountryName": "Philippines",
    "Name": "Cagayan De Oro City",
    "NameUpper": "CAGAYAN DE ORO CITY",
    "CurrencyName": "Pesos",
    "CurrencyCode": "PHP",
    "Region": null,
    "Continent": null,
    "IsRequiredVisa": false,
    "Latitude": 8.45423630000000000000,
    "Longitude": 124.63189770000000000000,
    "NearAirports": null
  },
  {
    "Code": "CHA",
    "CountryCode": "US",
    "CountryName": "United States",
    "Name": "Chattanooga",
    "NameUpper": "CHATTANOOGA",
    "CurrencyName": "Dollars",
    "CurrencyCode": "USD",
    "Region": null,
    "Continent": null,
    "IsRequiredVisa": false,
    "Latitude": 35.04562970000000000000,
    "Longitude": -85.30968010000000000000,
    "NearAirports": null
  },
  {
    "Code": "CHC",
    "CountryCode": "NZ",
    "CountryName": "New Zealand",
    "Name": "Christchurch",
    "NameUpper": "CHRISTCHURCH",
    "CurrencyName": "Dollars",
    "CurrencyCode": "NZD",
    "Region": null,
    "Continent": null,
    "IsRequiredVisa": false,
    "Latitude": -43.53205440000000000000,
    "Longitude": 172.63622540000000000000,
    "NearAirports": null
  },
  {
    "Code": "CHS",
    "CountryCode": "US",
    "CountryName": "United States",
    "Name": "Charleston",
    "NameUpper": "CHARLESTON",
    "CurrencyName": "Dollars",
    "CurrencyCode": "USD",
    "Region": null,
    "Continent": null,
    "IsRequiredVisa": false,
    "Latitude": 32.77647490000000000000,
    "Longitude": -79.93105120000000000000,
    "NearAirports": null
  },
  {
    "Code": "CIA",
    "CountryCode": "IT",
    "CountryName": "Italy",
    "Name": "Roma",
    "NameUpper": "ROMA",
    "CurrencyName": "Euro",
    "CurrencyCode": "EUR",
    "Region": null,
    "Continent": null,
    "IsRequiredVisa": false,
    "Latitude": 41.90278350000000000000,
    "Longitude": 12.49636550000000000000,
    "NearAirports": null
  },
  {
    "Code": "CICAL",
    "CountryCode": "ID",
    "CountryName": "Indonesia",
    "Name": "Cicalengka",
    "NameUpper": "CICALENGKA",
    "CurrencyName": "Rupiahs",
    "CurrencyCode": "IDR",
    "Region": null,
    "Continent": null,
    "IsRequiredVisa": false,
    "Latitude": -6.98536040000000000000,
    "Longitude": 107.86431070000000000000,
    "NearAirports": null
  },
  {
    "Code": "CID",
    "CountryCode": "US",
    "CountryName": "United States",
    "Name": "Cedar Rapids",
    "NameUpper": "CEDAR RAPIDS",
    "CurrencyName": "Dollars",
    "CurrencyCode": "USD",
    "Region": null,
    "Continent": null,
    "IsRequiredVisa": false,
    "Latitude": 41.97787950000000000000,
    "Longitude": -91.66562320000000000000,
    "NearAirports": null
  },
  {
    "Code": "CJJ",
    "CountryCode": "KR",
    "CountryName": "South Korea",
    "Name": "Cheongju",
    "NameUpper": "CHEONGJU",
    "CurrencyName": "Won",
    "CurrencyCode": "KRW",
    "Region": null,
    "Continent": null,
    "IsRequiredVisa": false,
    "Latitude": 36.64243410000000000000,
    "Longitude": 127.48903190000000000000,
    "NearAirports": null
  },
  {
    "Code": "CJM",
    "CountryCode": "TH",
    "CountryName": "Thailand",
    "Name": "Chumphon",
    "NameUpper": "CHUMPHON",
    "CurrencyName": "Baht",
    "CurrencyCode": "THB",
    "Region": null,
    "Continent": null,
    "IsRequiredVisa": false,
    "Latitude": 10.49304960000000000000,
    "Longitude": 99.18001990000000000000,
    "NearAirports": null
  },
  {
    "Code": "CJU",
    "CountryCode": "KR",
    "CountryName": "South Korea",
    "Name": "Jeju City",
    "NameUpper": "JEJU CITY",
    "CurrencyName": "Won",
    "CurrencyCode": "KRW",
    "Region": null,
    "Continent": null,
    "IsRequiredVisa": false,
    "Latitude": 33.49962130000000000000,
    "Longitude": 126.53118840000000000000,
    "NearAirports": null
  },
  {
    "Code": "CKG",
    "CountryCode": "CN",
    "CountryName": "China",
    "Name": "Chongqing",
    "NameUpper": "CHONGQING",
    "CurrencyName": "Yuan Renminbi",
    "CurrencyCode": "CNY",
    "Region": null,
    "Continent": null,
    "IsRequiredVisa": false,
    "Latitude": 29.43158610000000000000,
    "Longitude": 106.91225100000000000000,
    "NearAirports": null
  },
  {
    "Code": "CLE",
    "CountryCode": "US",
    "CountryName": "United States",
    "Name": "Cleveland",
    "NameUpper": "CLEVELAND",
    "CurrencyName": "Dollars",
    "CurrencyCode": "USD",
    "Region": null,
    "Continent": null,
    "IsRequiredVisa": false,
    "Latitude": 41.49932000000000000000,
    "Longitude": -81.69436050000000000000,
    "NearAirports": null
  },
  {
    "Code": "CLT",
    "CountryCode": "US",
    "CountryName": "United States",
    "Name": "Charlotte",
    "NameUpper": "CHARLOTTE",
    "CurrencyName": "Dollars",
    "CurrencyCode": "USD",
    "Region": null,
    "Continent": null,
    "IsRequiredVisa": false,
    "Latitude": 35.22708690000000000000,
    "Longitude": -80.84312670000000000000,
    "NearAirports": null
  },
  {
    "Code": "CMB",
    "CountryCode": "LK",
    "CountryName": "Sri Lanka",
    "Name": "Colombo",
    "NameUpper": "COLOMBO",
    "CurrencyName": "Rupees",
    "CurrencyCode": "LKR",
    "Region": null,
    "Continent": null,
    "IsRequiredVisa": false,
    "Latitude": 6.92707860000000000000,
    "Longitude": 79.86124300000000000000,
    "NearAirports": null
  },
  {
    "Code": "CMH",
    "CountryCode": "US",
    "CountryName": "United States",
    "Name": "Columbus",
    "NameUpper": "COLUMBUS",
    "CurrencyName": "Dollars",
    "CurrencyCode": "USD",
    "Region": null,
    "Continent": null,
    "IsRequiredVisa": false,
    "Latitude": 39.96117550000000000000,
    "Longitude": -82.99879420000000000000,
    "NearAirports": null
  },
  {
    "Code": "CMHII",
    "CountryCode": "ID",
    "CountryName": "Indonesia",
    "Name": "Cimahi",
    "NameUpper": "CIMAHI",
    "CurrencyName": "Rupiahs",
    "CurrencyCode": "IDR",
    "Region": null,
    "Continent": null,
    "IsRequiredVisa": false,
    "Latitude": -6.88408160000000000000,
    "Longitude": 107.54130390000000000000,
    "NearAirports": null
  },
  {
    "Code": "CMN",
    "CountryCode": "MA",
    "CountryName": "Morocco",
    "Name": "Casablanca",
    "NameUpper": "CASABLANCA",
    "CurrencyName": "Moroccan dirham",
    "CurrencyCode": "MAD",
    "Region": null,
    "Continent": null,
    "IsRequiredVisa": false,
    "Latitude": 33.57311040000000000000,
    "Longitude": -7.58984340000000000000,
    "NearAirports": null
  },
  {
    "Code": "CNF",
    "CountryCode": "BR",
    "CountryName": "Brazil",
    "Name": "Belo Horizonte",
    "NameUpper": "BELO HORIZONTE",
    "CurrencyName": "Reais",
    "CurrencyCode": "BRL",
    "Region": null,
    "Continent": null,
    "IsRequiredVisa": false,
    "Latitude": -19.91668130000000000000,
    "Longitude": -43.93449310000000000000,
    "NearAirports": null
  },
  {
    "Code": "CNS",
    "CountryCode": "AU",
    "CountryName": "Australia",
    "Name": "Cairns",
    "NameUpper": "CAIRNS",
    "CurrencyName": "Australian dollar",
    "CurrencyCode": "AUD",
    "Region": null,
    "Continent": null,
    "IsRequiredVisa": false,
    "Latitude": -16.91855140000000000000,
    "Longitude": 145.77805480000000000000,
    "NearAirports": null
  },
  {
    "Code": "CNX",
    "CountryCode": "TH",
    "CountryName": "Thailand",
    "Name": "Chiang Mai",
    "NameUpper": "CHIANG MAI",
    "CurrencyName": "Baht",
    "CurrencyCode": "THB",
    "Region": null,
    "Continent": null,
    "IsRequiredVisa": false,
    "Latitude": 18.79528760000000000000,
    "Longitude": 98.96200020000000000000,
    "NearAirports": null
  },
  {
    "Code": "COK",
    "CountryCode": "IN",
    "CountryName": "India",
    "Name": "Cochin",
    "NameUpper": "COCHIN",
    "CurrencyName": "Rupees",
    "CurrencyCode": "INR",
    "Region": null,
    "Continent": null,
    "IsRequiredVisa": false,
    "Latitude": 9.93123280000000000000,
    "Longitude": 76.26730410000000000000,
    "NearAirports": null
  },
  {
    "Code": "COS",
    "CountryCode": "US",
    "CountryName": "United States",
    "Name": "Colorado Springs",
    "NameUpper": "COLORADO SPRINGS",
    "CurrencyName": "Dollars",
    "CurrencyCode": "USD",
    "Region": null,
    "Continent": null,
    "IsRequiredVisa": false,
    "Latitude": 38.83388160000000000000,
    "Longitude": -104.82136340000000000000,
    "NearAirports": null
  },
  {
    "Code": "CPH",
    "CountryCode": "DK",
    "CountryName": "Denmark",
    "Name": "Copenhagen",
    "NameUpper": "COPENHAGEN",
    "CurrencyName": "Kroner",
    "CurrencyCode": "DKK",
    "Region": null,
    "Continent": null,
    "IsRequiredVisa": false,
    "Latitude": 55.67609680000000000000,
    "Longitude": 12.56833720000000000000,
    "NearAirports": null
  },
  {
    "Code": "CPR",
    "CountryCode": "US",
    "CountryName": "United States",
    "Name": "Casper",
    "NameUpper": "CASPER",
    "CurrencyName": "Dollars",
    "CurrencyCode": "USD",
    "Region": null,
    "Continent": null,
    "IsRequiredVisa": false,
    "Latitude": 42.85007690000000000000,
    "Longitude": -106.32517490000000000000,
    "NearAirports": null
  },
  {
    "Code": "CPT",
    "CountryCode": "ZA",
    "CountryName": "South Africa",
    "Name": "Cape Town",
    "NameUpper": "CAPE TOWN",
    "CurrencyName": "Rand",
    "CurrencyCode": "ZAR",
    "Region": null,
    "Continent": null,
    "IsRequiredVisa": false,
    "Latitude": -33.92486850000000000000,
    "Longitude": 18.42405530000000000000,
    "NearAirports": null
  },
  {
    "Code": "CRK",
    "CountryCode": "PH",
    "CountryName": "Philippines",
    "Name": "Angeles City",
    "NameUpper": "ANGELES CITY",
    "CurrencyName": "Pesos",
    "CurrencyCode": "PHP",
    "Region": null,
    "Continent": null,
    "IsRequiredVisa": false,
    "Latitude": 15.14498530000000000000,
    "Longitude": 120.58870290000000000000,
    "NearAirports": null
  },
  {
    "Code": "CRP",
    "CountryCode": "US",
    "CountryName": "United States",
    "Name": "Corpus Christi",
    "NameUpper": "CORPUS CHRISTI",
    "CurrencyName": "Dollars",
    "CurrencyCode": "USD",
    "Region": null,
    "Continent": null,
    "IsRequiredVisa": false,
    "Latitude": 27.80058280000000000000,
    "Longitude": -97.39638100000000000000,
    "NearAirports": null
  },
  {
    "Code": "CSX",
    "CountryCode": "CN",
    "CountryName": "China",
    "Name": "Changsha",
    "NameUpper": "CHANGSHA",
    "CurrencyName": "Yuan Renminbi",
    "CurrencyCode": "CNY",
    "Region": null,
    "Continent": null,
    "IsRequiredVisa": false,
    "Latitude": 28.22820900000000000000,
    "Longitude": 112.93881400000000000000,
    "NearAirports": null
  },
  {
    "Code": "CTA",
    "CountryCode": "IT",
    "CountryName": "Italy",
    "Name": "Catania",
    "NameUpper": "CATANIA",
    "CurrencyName": "Euro",
    "CurrencyCode": "EUR",
    "Region": null,
    "Continent": null,
    "IsRequiredVisa": false,
    "Latitude": 37.50787720000000000000,
    "Longitude": 15.08303040000000000000,
    "NearAirports": null
  },
  {
    "Code": "CTS",
    "CountryCode": "JP",
    "CountryName": "Japan",
    "Name": "Chitose / Tomakomai",
    "NameUpper": "CHITOSE / TOMAKOMAI",
    "CurrencyName": "Yen",
    "CurrencyCode": "JPY",
    "Region": null,
    "Continent": null,
    "IsRequiredVisa": false,
    "Latitude": 42.63124640000000000000,
    "Longitude": 141.60312220000000000000,
    "NearAirports": null
  },
  {
    "Code": "CTU",
    "CountryCode": "CN",
    "CountryName": "China",
    "Name": "Chengdu",
    "NameUpper": "CHENGDU",
    "CurrencyName": "Yuan Renminbi",
    "CurrencyCode": "CNY",
    "Region": null,
    "Continent": null,
    "IsRequiredVisa": false,
    "Latitude": 30.57281500000000000000,
    "Longitude": 104.06680100000000000000,
    "NearAirports": null
  },
  {
    "Code": "CUF",
    "CountryCode": "IT",
    "CountryName": "Italy",
    "Name": "Cuneo",
    "NameUpper": "CUNEO",
    "CurrencyName": "Euro",
    "CurrencyCode": "EUR",
    "Region": null,
    "Continent": null,
    "IsRequiredVisa": false,
    "Latitude": 44.38447660000000000000,
    "Longitude": 7.54267110000000000000,
    "NearAirports": null
  },
  {
    "Code": "CUN",
    "CountryCode": "MX",
    "CountryName": "Mexico",
    "Name": "Cancún",
    "NameUpper": "CANCÚN",
    "CurrencyName": "Pesos",
    "CurrencyCode": "MXN",
    "Region": null,
    "Continent": null,
    "IsRequiredVisa": false,
    "Latitude": 21.16190800000000000000,
    "Longitude": -86.85152790000000000000,
    "NearAirports": null
  },
  {
    "Code": "CUZ",
    "CountryCode": "PE",
    "CountryName": "Peru",
    "Name": "Cusco",
    "NameUpper": "CUSCO",
    "CurrencyName": "Nuevos Soles",
    "CurrencyCode": "PEN",
    "Region": null,
    "Continent": null,
    "IsRequiredVisa": false,
    "Latitude": -13.53195000000000000000,
    "Longitude": -71.96746260000000000000,
    "NearAirports": null
  },
  {
    "Code": "CVG",
    "CountryCode": "US",
    "CountryName": "United States",
    "Name": "Cincinnati",
    "NameUpper": "CINCINNATI",
    "CurrencyName": "Dollars",
    "CurrencyCode": "USD",
    "Region": null,
    "Continent": null,
    "IsRequiredVisa": false,
    "Latitude": 39.10311820000000000000,
    "Longitude": -84.51201960000000000000,
    "NearAirports": null
  },
  {
    "Code": "CVS",
    "CountryCode": "US",
    "CountryName": "United States",
    "Name": "Clovis",
    "NameUpper": "CLOVIS",
    "CurrencyName": "Dollars",
    "CurrencyCode": "USD",
    "Region": null,
    "Continent": null,
    "IsRequiredVisa": false,
    "Latitude": 36.82522770000000000000,
    "Longitude": -119.70291940000000000000,
    "NearAirports": null
  },
  {
    "Code": "CWB",
    "CountryCode": "BR",
    "CountryName": "Brazil",
    "Name": "Curitiba",
    "NameUpper": "CURITIBA",
    "CurrencyName": "Reais",
    "CurrencyCode": "BRL",
    "Region": null,
    "Continent": null,
    "IsRequiredVisa": false,
    "Latitude": -25.48087620000000000000,
    "Longitude": -49.30442530000000000000,
    "NearAirports": null
  },
  {
    "Code": "CWL",
    "CountryCode": "GB",
    "CountryName": "United Kingdom",
    "Name": "Cardiff",
    "NameUpper": "CARDIFF",
    "CurrencyName": "Pound sterling",
    "CurrencyCode": "GBP",
    "Region": null,
    "Continent": null,
    "IsRequiredVisa": false,
    "Latitude": 51.48158100000000000000,
    "Longitude": -3.17909000000000000000,
    "NearAirports": null
  },
  {
    "Code": "CXP",
    "CountryCode": "ID",
    "CountryName": "Indonesia",
    "Name": "Cilacap",
    "NameUpper": "CILACAP",
    "CurrencyName": "Rupiahs",
    "CurrencyCode": "IDR",
    "Region": null,
    "Continent": null,
    "IsRequiredVisa": false,
    "Latitude": -7.74923260000000000000,
    "Longitude": 109.01726970000000000000,
    "NearAirports": null
  },
  {
    "Code": "CXR",
    "CountryCode": "VN",
    "CountryName": "Viet Nam",
    "Name": "Cam Ranh",
    "NameUpper": "CAM RANH",
    "CurrencyName": "Dong",
    "CurrencyCode": "VND",
    "Region": null,
    "Continent": null,
    "IsRequiredVisa": false,
    "Latitude": 11.96621170000000000000,
    "Longitude": 109.19155780000000000000,
    "NearAirports": null
  },
  {
    "Code": "CYP",
    "CountryCode": "PH",
    "CountryName": "Philippines",
    "Name": "Calbayog",
    "NameUpper": "CALBAYOG",
    "CurrencyName": "Pesos",
    "CurrencyCode": "PHP",
    "Region": null,
    "Continent": null,
    "IsRequiredVisa": false,
    "Latitude": 12.06757490000000000000,
    "Longitude": 124.59295740000000000000,
    "NearAirports": null
  },
  {
    "Code": "CYZ",
    "CountryCode": "PH",
    "CountryName": "Philippines",
    "Name": "Cauayan",
    "NameUpper": "CAUAYAN",
    "CurrencyName": "Pesos",
    "CurrencyCode": "PHP",
    "Region": null,
    "Continent": null,
    "IsRequiredVisa": false,
    "Latitude": 16.91662440000000000000,
    "Longitude": 121.78792440000000000000,
    "NearAirports": null
  },
  {
    "Code": "DAC",
    "CountryCode": "BD",
    "CountryName": "Bangladesh",
    "Name": "Dhaka",
    "NameUpper": "DHAKA",
    "CurrencyName": "Taka",
    "CurrencyCode": "BDT",
    "Region": null,
    "Continent": null,
    "IsRequiredVisa": false,
    "Latitude": 23.81033200000000000000,
    "Longitude": 90.41251810000000000000,
    "NearAirports": null
  },
  {
    "Code": "DAD",
    "CountryCode": "VN",
    "CountryName": "Viet Nam",
    "Name": "Da Nang",
    "NameUpper": "DA NANG",
    "CurrencyName": "Dong",
    "CurrencyCode": "VND",
    "Region": null,
    "Continent": null,
    "IsRequiredVisa": false,
    "Latitude": 16.05440680000000000000,
    "Longitude": 108.20216670000000000000,
    "NearAirports": null
  },
  {
    "Code": "DAL",
    "CountryCode": "US",
    "CountryName": "United States",
    "Name": "Dallas",
    "NameUpper": "DALLAS",
    "CurrencyName": "Dollars",
    "CurrencyCode": "USD",
    "Region": null,
    "Continent": null,
    "IsRequiredVisa": false,
    "Latitude": 32.77666420000000000000,
    "Longitude": -96.79698790000000000000,
    "NearAirports": null
  },
  {
    "Code": "DAM",
    "CountryCode": "SY",
    "CountryName": "Syrian Arab Rep.",
    "Name": "Damascus",
    "NameUpper": "DAMASCUS",
    "CurrencyName": "Syrian pound",
    "CurrencyCode": "SYP",
    "Region": null,
    "Continent": null,
    "IsRequiredVisa": false,
    "Latitude": 33.51380730000000000000,
    "Longitude": 36.27652790000000000000,
    "NearAirports": null
  },
  {
    "Code": "DAY",
    "CountryCode": "US",
    "CountryName": "United States",
    "Name": "Dayton",
    "NameUpper": "DAYTON",
    "CurrencyName": "Dollars",
    "CurrencyCode": "USD",
    "Region": null,
    "Continent": null,
    "IsRequiredVisa": false,
    "Latitude": 39.75894780000000000000,
    "Longitude": -84.19160690000000000000,
    "NearAirports": null
  },
  {
    "Code": "DBQ",
    "CountryCode": "US",
    "CountryName": "United States",
    "Name": "Dubuque",
    "NameUpper": "DUBUQUE",
    "CurrencyName": "Dollars",
    "CurrencyCode": "USD",
    "Region": null,
    "Continent": null,
    "IsRequiredVisa": false,
    "Latitude": 42.50226610000000000000,
    "Longitude": -90.66546750000000000000,
    "NearAirports": null
  },
  {
    "Code": "DEL",
    "CountryCode": "IN",
    "CountryName": "India",
    "Name": "New Delhi",
    "NameUpper": "NEW DELHI",
    "CurrencyName": "Rupees",
    "CurrencyCode": "INR",
    "Region": null,
    "Continent": null,
    "IsRequiredVisa": false,
    "Latitude": 28.61393910000000000000,
    "Longitude": 77.20902120000000000000,
    "NearAirports": null
  },
  {
    "Code": "DEN",
    "CountryCode": "US",
    "CountryName": "United States",
    "Name": "Denver",
    "NameUpper": "DENVER",
    "CurrencyName": "Dollars",
    "CurrencyCode": "USD",
    "Region": null,
    "Continent": null,
    "IsRequiredVisa": false,
    "Latitude": 39.73923580000000000000,
    "Longitude": -104.99025100000000000000,
    "NearAirports": null
  },
  {
    "Code": "DEX",
    "CountryCode": "ID",
    "CountryName": "Indonesia",
    "Name": "Yahukimo",
    "NameUpper": "YAHUKIMO",
    "CurrencyName": "Rupiahs",
    "CurrencyCode": "IDR",
    "Region": null,
    "Continent": null,
    "IsRequiredVisa": false,
    "Latitude": -4.49397170000000000000,
    "Longitude": 139.52799960000000000000,
    "NearAirports": null
  },
  {
    "Code": "DFW",
    "CountryCode": "US",
    "CountryName": "United States",
    "Name": "Dallas-fort Worth",
    "NameUpper": "DALLAS-FORT WORTH",
    "CurrencyName": "Dollars",
    "CurrencyCode": "USD",
    "Region": null,
    "Continent": null,
    "IsRequiredVisa": false,
    "Latitude": 32.89980910000000000000,
    "Longitude": -97.04033520000000000000,
    "NearAirports": null
  },
  {
    "Code": "DGT",
    "CountryCode": "PH",
    "CountryName": "Philippines",
    "Name": "Dumaguete",
    "NameUpper": "DUMAGUETE",
    "CurrencyName": "Pesos",
    "CurrencyCode": "PHP",
    "Region": null,
    "Continent": null,
    "IsRequiredVisa": false,
    "Latitude": 9.30684020000000000000,
    "Longitude": 123.30544670000000000000,
    "NearAirports": null
  },
  {
    "Code": "DHA",
    "CountryCode": "SA",
    "CountryName": "Saudi Arabia",
    "Name": "Dhahran",
    "NameUpper": "DHAHRAN",
    "CurrencyName": "Riyals",
    "CurrencyCode": "SAR",
    "Region": null,
    "Continent": null,
    "IsRequiredVisa": false,
    "Latitude": 26.23612480000000000000,
    "Longitude": 50.03930170000000000000,
    "NearAirports": null
  },
  {
    "Code": "DIL",
    "CountryCode": "TL",
    "CountryName": "Timor-leste",
    "Name": "Timor Leste",
    "NameUpper": "TIMOR LESTE",
    "CurrencyName": "US Dollar",
    "CurrencyCode": "USD",
    "Region": null,
    "Continent": null,
    "IsRequiredVisa": false,
    "Latitude": -8.87421700000000000000,
    "Longitude": 125.72753900000000000000,
    "NearAirports": null
  },
  {
    "Code": "DIN",
    "CountryCode": "VN",
    "CountryName": "Viet Nam",
    "Name": "Dien Bien Phu",
    "NameUpper": "DIEN BIEN PHU",
    "CurrencyName": "Dong",
    "CurrencyCode": "VND",
    "Region": null,
    "Continent": null,
    "IsRequiredVisa": false,
    "Latitude": 21.40638980000000000000,
    "Longitude": 103.03215490000000000000,
    "NearAirports": null
  },
  {
    "Code": "DJB",
    "CountryCode": "ID",
    "CountryName": "Indonesia",
    "Name": "Jambi",
    "NameUpper": "JAMBI",
    "CurrencyName": "Rupiahs",
    "CurrencyCode": "IDR",
    "Region": null,
    "Continent": null,
    "IsRequiredVisa": false,
    "Latitude": -1.61012290000000000000,
    "Longitude": 103.61312030000000000000,
    "NearAirports": null
  },
  {
    "Code": "DJJ",
    "CountryCode": "ID",
    "CountryName": "Indonesia",
    "Name": "Jayapura",
    "NameUpper": "JAYAPURA",
    "CurrencyName": "Rupiahs",
    "CurrencyCode": "IDR",
    "Region": null,
    "Continent": null,
    "IsRequiredVisa": false,
    "Latitude": -2.98792300000000000000,
    "Longitude": 139.85472660000000000000,
    "NearAirports": null
  },
  {
    "Code": "DKR",
    "CountryCode": "SN",
    "CountryName": "Senegal",
    "Name": "Dakar",
    "NameUpper": "DAKAR",
    "CurrencyName": "CFA Franc BCEAO",
    "CurrencyCode": "XOF",
    "Region": null,
    "Continent": null,
    "IsRequiredVisa": false,
    "Latitude": 14.71667700000000000000,
    "Longitude": -17.46768610000000000000,
    "NearAirports": null
  },
  {
    "Code": "DLC",
    "CountryCode": "CN",
    "CountryName": "China",
    "Name": "Dalian",
    "NameUpper": "DALIAN",
    "CurrencyName": "Yuan Renminbi",
    "CurrencyCode": "CNY",
    "Region": null,
    "Continent": null,
    "IsRequiredVisa": false,
    "Latitude": 38.91400300000000000000,
    "Longitude": 121.61468200000000000000,
    "NearAirports": null
  },
  {
    "Code": "DLF",
    "CountryCode": "US",
    "CountryName": "United States",
    "Name": "Del Rio",
    "NameUpper": "DEL RIO",
    "CurrencyName": "Dollars",
    "CurrencyCode": "USD",
    "Region": null,
    "Continent": null,
    "IsRequiredVisa": false,
    "Latitude": 29.37088570000000000000,
    "Longitude": -100.89586740000000000000,
    "NearAirports": null
  },
  {
    "Code": "DLH",
    "CountryCode": "US",
    "CountryName": "United States",
    "Name": "Duluth",
    "NameUpper": "DULUTH",
    "CurrencyName": "Dollars",
    "CurrencyCode": "USD",
    "Region": null,
    "Continent": null,
    "IsRequiredVisa": false,
    "Latitude": 46.78667190000000000000,
    "Longitude": -92.10048520000000000000,
    "NearAirports": null
  },
  {
    "Code": "DLI",
    "CountryCode": "VN",
    "CountryName": "Viet Nam",
    "Name": "Lien Khuong",
    "NameUpper": "LIEN KHUONG",
    "CurrencyName": "Dong",
    "CurrencyCode": "VND",
    "Region": null,
    "Continent": null,
    "IsRequiredVisa": false,
    "Latitude": 11.75376230000000000000,
    "Longitude": 108.37716450000000000000,
    "NearAirports": null
  },
  {
    "Code": "DLM",
    "CountryCode": "TR",
    "CountryName": "Turkey",
    "Name": "Dalaman",
    "NameUpper": "DALAMAN",
    "CurrencyName": "Lira",
    "CurrencyCode": "TRY",
    "Region": null,
    "Continent": null,
    "IsRequiredVisa": false,
    "Latitude": 36.76662000000000000000,
    "Longitude": 28.79999100000000000000,
    "NearAirports": null
  },
  {
    "Code": "DME",
    "CountryCode": "RU",
    "CountryName": "Russian Federation",
    "Name": "Moscow",
    "NameUpper": "MOSCOW",
    "CurrencyName": "Rubles",
    "CurrencyCode": "RUB",
    "Region": null,
    "Continent": null,
    "IsRequiredVisa": false,
    "Latitude": 55.75582600000000000000,
    "Longitude": 37.61729990000000000000,
    "NearAirports": null
  },
  {
    "Code": "DMK",
    "CountryCode": "TH",
    "CountryName": "Thailand",
    "Name": "Bangkok",
    "NameUpper": "BANGKOK",
    "CurrencyName": "Baht",
    "CurrencyCode": "THB",
    "Region": null,
    "Continent": null,
    "IsRequiredVisa": false,
    "Latitude": 13.75633090000000000000,
    "Longitude": 100.50176510000000000000,
    "NearAirports": null
  },
  {
    "Code": "DMM",
    "CountryCode": "SA",
    "CountryName": "Saudi Arabia",
    "Name": "Ad Dammam",
    "NameUpper": "AD DAMMAM",
    "CurrencyName": "Riyals",
    "CurrencyCode": "SAR",
    "Region": null,
    "Continent": null,
    "IsRequiredVisa": false,
    "Latitude": 26.42068280000000000000,
    "Longitude": 50.08879430000000000000,
    "NearAirports": null
  },
  {
    "Code": "DOB",
    "CountryCode": "ID",
    "CountryName": "Indonesia",
    "Name": "Dobo",
    "NameUpper": "DOBO",
    "CurrencyName": "Rupiahs",
    "CurrencyCode": "IDR",
    "Region": null,
    "Continent": null,
    "IsRequiredVisa": false,
    "Latitude": -5.75578700000000000000,
    "Longitude": 134.21740700000000000000,
    "NearAirports": null
  },
  {
    "Code": "DOH",
    "CountryCode": "QA",
    "CountryName": "Qatar",
    "Name": "Doha",
    "NameUpper": "DOHA",
    "CurrencyName": "Rials",
    "CurrencyCode": "QAR",
    "Region": null,
    "Continent": null,
    "IsRequiredVisa": false,
    "Latitude": 25.28544730000000000000,
    "Longitude": 51.53103980000000000000,
    "NearAirports": null
  },
  {
    "Code": "DOK",
    "CountryCode": "UA",
    "CountryName": "Ukraine",
    "Name": "Donetsk",
    "NameUpper": "DONETSK",
    "CurrencyName": "Hryvnia",
    "CurrencyCode": "UAH",
    "Region": null,
    "Continent": null,
    "IsRequiredVisa": false,
    "Latitude": 48.01588300000000000000,
    "Longitude": 37.80285000000000000000,
    "NearAirports": null
  },
  {
    "Code": "DOV",
    "CountryCode": "US",
    "CountryName": "United States",
    "Name": "Dover",
    "NameUpper": "DOVER",
    "CurrencyName": "Dollars",
    "CurrencyCode": "USD",
    "Region": null,
    "Continent": null,
    "IsRequiredVisa": false,
    "Latitude": 39.15816800000000000000,
    "Longitude": -75.52436820000000000000,
    "NearAirports": null
  },
  {
    "Code": "DPL",
    "CountryCode": "PH",
    "CountryName": "Philippines",
    "Name": "Dipolog",
    "NameUpper": "DIPOLOG",
    "CurrencyName": "Pesos",
    "CurrencyCode": "PHP",
    "Region": null,
    "Continent": null,
    "IsRequiredVisa": false,
    "Latitude": 8.51427360000000000000,
    "Longitude": 123.33739160000000000000,
    "NearAirports": null
  },
  {
    "Code": "DPS",
    "CountryCode": "ID",
    "CountryName": "Indonesia",
    "Name": "Bali",
    "NameUpper": "BALI",
    "CurrencyName": "Rupiahs",
    "CurrencyCode": "IDR",
    "Region": null,
    "Continent": null,
    "IsRequiredVisa": false,
    "Latitude": -8.67045820000000000000,
    "Longitude": 115.21262930000000000000,
    "NearAirports": null
  },
  {
    "Code": "DRS",
    "CountryCode": "DE",
    "CountryName": "Germany",
    "Name": "Dresden",
    "NameUpper": "DRESDEN",
    "CurrencyName": "Euro",
    "CurrencyCode": "EUR",
    "Region": null,
    "Continent": null,
    "IsRequiredVisa": false,
    "Latitude": 51.05040880000000000000,
    "Longitude": 13.73726210000000000000,
    "NearAirports": null
  },
  {
    "Code": "DRW",
    "CountryCode": "AU",
    "CountryName": "Australia",
    "Name": "Darwin",
    "NameUpper": "DARWIN",
    "CurrencyName": "Australian dollar",
    "CurrencyCode": "AUD",
    "Region": null,
    "Continent": null,
    "IsRequiredVisa": false,
    "Latitude": -12.46344030000000000000,
    "Longitude": 130.84564180000000000000,
    "NearAirports": null
  },
  {
    "Code": "DSA",
    "CountryCode": "GB",
    "CountryName": "United Kingdom",
    "Name": "Doncaster",
    "NameUpper": "DONCASTER",
    "CurrencyName": "Pound sterling",
    "CurrencyCode": "GBP",
    "Region": null,
    "Continent": null,
    "IsRequiredVisa": false,
    "Latitude": 53.52282000000000000000,
    "Longitude": -1.12846200000000000000,
    "NearAirports": null
  },
  {
    "Code": "DSM",
    "CountryCode": "US",
    "CountryName": "United States",
    "Name": "Des Moines",
    "NameUpper": "DES MOINES",
    "CurrencyName": "Dollars",
    "CurrencyCode": "USD",
    "Region": null,
    "Continent": null,
    "IsRequiredVisa": false,
    "Latitude": 41.58683530000000000000,
    "Longitude": -93.62495930000000000000,
    "NearAirports": null
  },
  {
    "Code": "DTB",
    "CountryCode": "ID",
    "CountryName": "Indonesia",
    "Name": "Silangit",
    "NameUpper": "SILANGIT",
    "CurrencyName": "Rupiahs",
    "CurrencyCode": "IDR",
    "Region": null,
    "Continent": null,
    "IsRequiredVisa": false,
    "Latitude": 2.26227500000000000000,
    "Longitude": 98.98780250000000000000,
    "NearAirports": null
  },
  {
    "Code": "DTD",
    "CountryCode": "ID",
    "CountryName": "Indonesia",
    "Name": "Datadawai",
    "NameUpper": "DATADAWAI",
    "CurrencyName": "Rupiahs",
    "CurrencyCode": "IDR",
    "Region": null,
    "Continent": null,
    "IsRequiredVisa": false,
    "Latitude": 0.80802320000000000000,
    "Longitude": 114.52947030000000000000,
    "NearAirports": null
  },
  {
    "Code": "DTM",
    "CountryCode": "DE",
    "CountryName": "Germany",
    "Name": "Dortmund",
    "NameUpper": "DORTMUND",
    "CurrencyName": "Euro",
    "CurrencyCode": "EUR",
    "Region": null,
    "Continent": null,
    "IsRequiredVisa": false,
    "Latitude": 51.51358720000000000000,
    "Longitude": 7.46529810000000000000,
    "NearAirports": null
  },
  {
    "Code": "DTW",
    "CountryCode": "US",
    "CountryName": "United States",
    "Name": "Detroit",
    "NameUpper": "DETROIT",
    "CurrencyName": "Dollars",
    "CurrencyCode": "USD",
    "Region": null,
    "Continent": null,
    "IsRequiredVisa": false,
    "Latitude": 42.33142700000000000000,
    "Longitude": -83.04575380000000000000,
    "NearAirports": null
  },
  {
    "Code": "DUB",
    "CountryCode": "IE",
    "CountryName": "Ireland",
    "Name": "Dublin",
    "NameUpper": "DUBLIN",
    "CurrencyName": "Euro",
    "CurrencyCode": "EUR",
    "Region": null,
    "Continent": null,
    "IsRequiredVisa": false,
    "Latitude": 53.34980530000000000000,
    "Longitude": -6.26030970000000000000,
    "NearAirports": null
  },
  {
    "Code": "DUM",
    "CountryCode": "ID",
    "CountryName": "Indonesia",
    "Name": "Dumai",
    "NameUpper": "DUMAI",
    "CurrencyName": "Rupiahs",
    "CurrencyCode": "IDR",
    "Region": null,
    "Continent": null,
    "IsRequiredVisa": false,
    "Latitude": 1.66663490000000000000,
    "Longitude": 101.40018550000000000000,
    "NearAirports": null
  },
  {
    "Code": "DUR",
    "CountryCode": "ZA",
    "CountryName": "South Africa",
    "Name": "Durban",
    "NameUpper": "DURBAN",
    "CurrencyName": "Rand",
    "CurrencyCode": "ZAR",
    "Region": null,
    "Continent": null,
    "IsRequiredVisa": false,
    "Latitude": -29.85868040000000000000,
    "Longitude": 31.02184040000000000000,
    "NearAirports": null
  },
  {
    "Code": "DUS",
    "CountryCode": "DE",
    "CountryName": "Germany",
    "Name": "Düsseldorf",
    "NameUpper": "DÜSSELDORF",
    "CurrencyName": "Euro",
    "CurrencyCode": "EUR",
    "Region": null,
    "Continent": null,
    "IsRequiredVisa": false,
    "Latitude": 51.22774110000000000000,
    "Longitude": 6.77345560000000000000,
    "NearAirports": null
  },
  {
    "Code": "DVO",
    "CountryCode": "PH",
    "CountryName": "Philippines",
    "Name": "Davao City",
    "NameUpper": "DAVAO CITY",
    "CurrencyName": "Pesos",
    "CurrencyCode": "PHP",
    "Region": null,
    "Continent": null,
    "IsRequiredVisa": false,
    "Latitude": 7.19070800000000000000,
    "Longitude": 125.45534100000000000000,
    "NearAirports": null
  },
  {
    "Code": "DWC",
    "CountryCode": "AE",
    "CountryName": "United Arab Emirates",
    "Name": "Jebel Ali",
    "NameUpper": "JEBEL ALI",
    "CurrencyName": "UAE Dirham",
    "CurrencyCode": "AED",
    "Region": null,
    "Continent": null,
    "IsRequiredVisa": false,
    "Latitude": 24.98571450000000000000,
    "Longitude": 55.02729040000000000000,
    "NearAirports": null
  },
  {
    "Code": "DXB",
    "CountryCode": "AE",
    "CountryName": "United Arab Emirates",
    "Name": "Dubai",
    "NameUpper": "DUBAI",
    "CurrencyName": "UAE Dirham",
    "CurrencyCode": "AED",
    "Region": null,
    "Continent": null,
    "IsRequiredVisa": false,
    "Latitude": 25.20484930000000000000,
    "Longitude": 55.27078280000000000000,
    "NearAirports": null
  },
  {
    "Code": "DYS",
    "CountryCode": "US",
    "CountryName": "United States",
    "Name": "Abilene",
    "NameUpper": "ABILENE",
    "CurrencyName": "Dollars",
    "CurrencyCode": "USD",
    "Region": null,
    "Continent": null,
    "IsRequiredVisa": false,
    "Latitude": 32.44873640000000000000,
    "Longitude": -99.73314390000000000000,
    "NearAirports": null
  },
  {
    "Code": "EDI",
    "CountryCode": "GB",
    "CountryName": "United Kingdom",
    "Name": "Edinburgh",
    "NameUpper": "EDINBURGH",
    "CurrencyName": "Pound sterling",
    "CurrencyCode": "GBP",
    "Region": null,
    "Continent": null,
    "IsRequiredVisa": false,
    "Latitude": 55.95325200000000000000,
    "Longitude": -3.18826700000000000000,
    "NearAirports": null
  },
  {
    "Code": "EIN",
    "CountryCode": "NL",
    "CountryName": "Netherlands",
    "Name": "Eindhoven",
    "NameUpper": "EINDHOVEN",
    "CurrencyName": "Euro",
    "CurrencyCode": "EUR",
    "Region": null,
    "Continent": null,
    "IsRequiredVisa": false,
    "Latitude": 51.44164200000000000000,
    "Longitude": 5.46972250000000000000,
    "NearAirports": null
  },
  {
    "Code": "EMA",
    "CountryCode": "GB",
    "CountryName": "United Kingdom",
    "Name": "Nottingham",
    "NameUpper": "NOTTINGHAM",
    "CurrencyName": "Pound sterling",
    "CurrencyCode": "GBP",
    "Region": null,
    "Continent": null,
    "IsRequiredVisa": false,
    "Latitude": 52.95478320000000000000,
    "Longitude": -1.15810860000000000000,
    "NearAirports": null
  },
  {
    "Code": "END",
    "CountryCode": "US",
    "CountryName": "United States",
    "Name": "Enid",
    "NameUpper": "ENID",
    "CurrencyName": "Dollars",
    "CurrencyCode": "USD",
    "Region": null,
    "Continent": null,
    "IsRequiredVisa": false,
    "Latitude": 36.39558910000000000000,
    "Longitude": -97.87839110000000000000,
    "NearAirports": null
  },
  {
    "Code": "ENE",
    "CountryCode": "ID",
    "CountryName": "Indonesia",
    "Name": "Ende",
    "NameUpper": "ENDE",
    "CurrencyName": "Rupiahs",
    "CurrencyCode": "IDR",
    "Region": null,
    "Continent": null,
    "IsRequiredVisa": false,
    "Latitude": -8.85405300000000000000,
    "Longitude": 121.65419800000000000000,
    "NearAirports": null
  },
  {
    "Code": "ERI",
    "CountryCode": "US",
    "CountryName": "United States",
    "Name": "Erie",
    "NameUpper": "ERIE",
    "CurrencyName": "Dollars",
    "CurrencyCode": "USD",
    "Region": null,
    "Continent": null,
    "IsRequiredVisa": false,
    "Latitude": 42.12922410000000000000,
    "Longitude": -80.08505900000000000000,
    "NearAirports": null
  },
  {
    "Code": "ERZ",
    "CountryCode": "TR",
    "CountryName": "Turkey",
    "Name": "Erzurum",
    "NameUpper": "ERZURUM",
    "CurrencyName": "Lira",
    "CurrencyCode": "TRY",
    "Region": null,
    "Continent": null,
    "IsRequiredVisa": false,
    "Latitude": 39.90549930000000000000,
    "Longitude": 41.26582360000000000000,
    "NearAirports": null
  },
  {
    "Code": "ESB",
    "CountryCode": "TR",
    "CountryName": "Turkey",
    "Name": "Ankara",
    "NameUpper": "ANKARA",
    "CurrencyName": "Lira",
    "CurrencyCode": "TRY",
    "Region": null,
    "Continent": null,
    "IsRequiredVisa": false,
    "Latitude": 39.93336350000000000000,
    "Longitude": 32.85974190000000000000,
    "NearAirports": null
  },
  {
    "Code": "EVN",
    "CountryCode": "AM",
    "CountryName": "Armenia",
    "Name": "Yerevan",
    "NameUpper": "YEREVAN",
    "CurrencyName": "armenian dram",
    "CurrencyCode": "AMD",
    "Region": null,
    "Continent": null,
    "IsRequiredVisa": false,
    "Latitude": 40.18720230000000000000,
    "Longitude": 44.51520900000000000000,
    "NearAirports": null
  },
  {
    "Code": "EWR",
    "CountryCode": "US",
    "CountryName": "United States",
    "Name": "Newark",
    "NameUpper": "NEWARK",
    "CurrencyName": "Dollars",
    "CurrencyCode": "USD",
    "Region": null,
    "Continent": null,
    "IsRequiredVisa": false,
    "Latitude": 40.73565700000000000000,
    "Longitude": -74.17236670000000000000,
    "NearAirports": null
  },
  {
    "Code": "EXT",
    "CountryCode": "GB",
    "CountryName": "United Kingdom",
    "Name": "Exeter",
    "NameUpper": "EXETER",
    "CurrencyName": "Pound sterling",
    "CurrencyCode": "GBP",
    "Region": null,
    "Continent": null,
    "IsRequiredVisa": false,
    "Latitude": 50.71841200000000000000,
    "Longitude": -3.53389900000000000000,
    "NearAirports": null
  },
  {
    "Code": "EZE",
    "CountryCode": "AR",
    "CountryName": "Argentina",
    "Name": "Buenos Aires",
    "NameUpper": "BUENOS AIRES",
    "CurrencyName": "Pesos",
    "CurrencyCode": "ARS",
    "Region": null,
    "Continent": null,
    "IsRequiredVisa": false,
    "Latitude": -34.60368440000000000000,
    "Longitude": -58.38155910000000000000,
    "NearAirports": null
  },
  {
    "Code": "FAI",
    "CountryCode": "US",
    "CountryName": "United States",
    "Name": "Fairbanks",
    "NameUpper": "FAIRBANKS",
    "CurrencyName": "Dollars",
    "CurrencyCode": "USD",
    "Region": null,
    "Continent": null,
    "IsRequiredVisa": false,
    "Latitude": 64.83777780000000000000,
    "Longitude": -147.71638880000000000000,
    "NearAirports": null
  },
  {
    "Code": "FAO",
    "CountryCode": "PT",
    "CountryName": "Portugal",
    "Name": "Faro",
    "NameUpper": "FARO",
    "CurrencyName": "Euro",
    "CurrencyCode": "EUR",
    "Region": null,
    "Continent": null,
    "IsRequiredVisa": false,
    "Latitude": 37.01935480000000000000,
    "Longitude": -7.93043970000000000000,
    "NearAirports": null
  },
  {
    "Code": "FCO",
    "CountryCode": "IT",
    "CountryName": "Italy",
    "Name": "Rome",
    "NameUpper": "ROME",
    "CurrencyName": "Euro",
    "CurrencyCode": "EUR",
    "Region": null,
    "Continent": null,
    "IsRequiredVisa": false,
    "Latitude": 41.90278350000000000000,
    "Longitude": 12.49636550000000000000,
    "NearAirports": null
  },
  {
    "Code": "FFD",
    "CountryCode": "GB",
    "CountryName": "United Kingdom",
    "Name": "Fairford",
    "NameUpper": "FAIRFORD",
    "CurrencyName": "Pound sterling",
    "CurrencyCode": "GBP",
    "Region": null,
    "Continent": null,
    "IsRequiredVisa": false,
    "Latitude": 51.70753700000000000000,
    "Longitude": -1.78513500000000000000,
    "NearAirports": null
  },
  {
    "Code": "FKB",
    "CountryCode": "DE",
    "CountryName": "Germany",
    "Name": "Baden-baden",
    "NameUpper": "BADEN-BADEN",
    "CurrencyName": "Euro",
    "CurrencyCode": "EUR",
    "Region": null,
    "Continent": null,
    "IsRequiredVisa": false,
    "Latitude": 48.76564000000000000000,
    "Longitude": 8.22852420000000000000,
    "NearAirports": null
  },
  {
    "Code": "FKQ",
    "CountryCode": "ID",
    "CountryName": "Indonesia",
    "Name": "Fakfak",
    "NameUpper": "FAKFAK",
    "CurrencyName": "Rupiahs",
    "CurrencyCode": "IDR",
    "Region": null,
    "Continent": null,
    "IsRequiredVisa": false,
    "Latitude": -2.88523700000000000000,
    "Longitude": 132.26582820000000000000,
    "NearAirports": null
  },
  {
    "Code": "FLL",
    "CountryCode": "US",
    "CountryName": "United States",
    "Name": "Fort Lauderdale",
    "NameUpper": "FORT LAUDERDALE",
    "CurrencyName": "Dollars",
    "CurrencyCode": "USD",
    "Region": null,
    "Continent": null,
    "IsRequiredVisa": false,
    "Latitude": 26.12243860000000000000,
    "Longitude": -80.13731740000000000000,
    "NearAirports": null
  },
  {
    "Code": "FLN",
    "CountryCode": "BR",
    "CountryName": "Brazil",
    "Name": "Florianópolis",
    "NameUpper": "FLORIANÓPOLIS",
    "CurrencyName": "Reais",
    "CurrencyCode": "BRL",
    "Region": null,
    "Continent": null,
    "IsRequiredVisa": false,
    "Latitude": -27.59486980000000000000,
    "Longitude": -48.54821950000000000000,
    "NearAirports": null
  },
  {
    "Code": "FLZ",
    "CountryCode": "ID",
    "CountryName": "Indonesia",
    "Name": "Sibolga",
    "NameUpper": "SIBOLGA",
    "CurrencyName": "Rupiahs",
    "CurrencyCode": "IDR",
    "Region": null,
    "Continent": null,
    "IsRequiredVisa": false,
    "Latitude": 1.73683710000000000000,
    "Longitude": 98.78511210000000000000,
    "NearAirports": null
  },
  {
    "Code": "FMO",
    "CountryCode": "DE",
    "CountryName": "Germany",
    "Name": "Münster",
    "NameUpper": "MÜNSTER",
    "CurrencyName": "Euro",
    "CurrencyCode": "EUR",
    "Region": null,
    "Continent": null,
    "IsRequiredVisa": false,
    "Latitude": 51.96066490000000000000,
    "Longitude": 7.62613470000000000000,
    "NearAirports": null
  },
  {
    "Code": "FOC",
    "CountryCode": "CN",
    "CountryName": "China",
    "Name": "Fuzhou",
    "NameUpper": "FUZHOU",
    "CurrencyName": "Yuan Renminbi",
    "CurrencyCode": "CNY",
    "Region": null,
    "Continent": null,
    "IsRequiredVisa": false,
    "Latitude": 26.07447800000000000000,
    "Longitude": 119.29648200000000000000,
    "NearAirports": null
  },
  {
    "Code": "FOO",
    "CountryCode": "ID",
    "CountryName": "Indonesia",
    "Name": "Numfoor",
    "NameUpper": "NUMFOOR",
    "CurrencyName": "Rupiahs",
    "CurrencyCode": "IDR",
    "Region": null,
    "Continent": null,
    "IsRequiredVisa": false,
    "Latitude": -0.99540120000000000000,
    "Longitude": 134.88795760000000000000,
    "NearAirports": null
  },
  {
    "Code": "FRA",
    "CountryCode": "DE",
    "CountryName": "Germany",
    "Name": "Frankfurt-am-main",
    "NameUpper": "FRANKFURT-AM-MAIN",
    "CurrencyName": "Euro",
    "CurrencyCode": "EUR",
    "Region": null,
    "Continent": null,
    "IsRequiredVisa": false,
    "Latitude": 50.11092210000000000000,
    "Longitude": 8.68212670000000000000,
    "NearAirports": null
  },
  {
    "Code": "FRU",
    "CountryCode": "KG",
    "CountryName": "Kyrgyzstan",
    "Name": "Bishkek",
    "NameUpper": "BISHKEK",
    "CurrencyName": "Soms",
    "CurrencyCode": "KGS",
    "Region": null,
    "Continent": null,
    "IsRequiredVisa": false,
    "Latitude": 42.87462120000000000000,
    "Longitude": 74.56976170000000000000,
    "NearAirports": null
  },
  {
    "Code": "FSM",
    "CountryCode": "US",
    "CountryName": "United States",
    "Name": "Fort Smith",
    "NameUpper": "FORT SMITH",
    "CurrencyName": "Dollars",
    "CurrencyCode": "USD",
    "Region": null,
    "Continent": null,
    "IsRequiredVisa": false,
    "Latitude": 35.38592420000000000000,
    "Longitude": -94.39854750000000000000,
    "NearAirports": null
  },
  {
    "Code": "FSZ",
    "CountryCode": "JP",
    "CountryName": "Japan",
    "Name": "Makinohara / Shimada",
    "NameUpper": "MAKINOHARA / SHIMADA",
    "CurrencyName": "Yen",
    "CurrencyCode": "JPY",
    "Region": null,
    "Continent": null,
    "IsRequiredVisa": false,
    "Latitude": 34.79766340000000000000,
    "Longitude": 138.20981560000000000000,
    "NearAirports": null
  },
  {
    "Code": "FUK",
    "CountryCode": "JP",
    "CountryName": "Japan",
    "Name": "Fukuoka",
    "NameUpper": "FUKUOKA",
    "CurrencyName": "Yen",
    "CurrencyCode": "JPY",
    "Region": null,
    "Continent": null,
    "IsRequiredVisa": false,
    "Latitude": 33.59018380000000000000,
    "Longitude": 130.40168880000000000000,
    "NearAirports": null
  },
  {
    "Code": "FWA",
    "CountryCode": "US",
    "CountryName": "United States",
    "Name": "Fort Wayne",
    "NameUpper": "FORT WAYNE",
    "CurrencyName": "Dollars",
    "CurrencyCode": "USD",
    "Region": null,
    "Continent": null,
    "IsRequiredVisa": false,
    "Latitude": 41.07927300000000000000,
    "Longitude": -85.13935130000000000000,
    "NearAirports": null
  },
  {
    "Code": "GCM",
    "CountryCode": "KY",
    "CountryName": "Cayman Islands",
    "Name": "Georgetown",
    "NameUpper": "GEORGETOWN",
    "CurrencyName": "Dollars",
    "CurrencyCode": "KYD",
    "Region": null,
    "Continent": null,
    "IsRequiredVisa": false,
    "Latitude": 19.28693230000000000000,
    "Longitude": -81.36743890000000000000,
    "NearAirports": null
  },
  {
    "Code": "GDL",
    "CountryCode": "MX",
    "CountryName": "Mexico",
    "Name": "Guadalajara",
    "NameUpper": "GUADALAJARA",
    "CurrencyName": "Pesos",
    "CurrencyCode": "MXN",
    "Region": null,
    "Continent": null,
    "IsRequiredVisa": false,
    "Latitude": 20.65969880000000000000,
    "Longitude": -103.34960920000000000000,
    "NearAirports": null
  },
  {
    "Code": "GDN",
    "CountryCode": "PL",
    "CountryName": "Poland",
    "Name": "Gdansk",
    "NameUpper": "GDANSK",
    "CurrencyName": "Zlotych",
    "CurrencyCode": "PLN",
    "Region": null,
    "Continent": null,
    "IsRequiredVisa": false,
    "Latitude": 54.35202520000000000000,
    "Longitude": 18.64663840000000000000,
    "NearAirports": null
  },
  {
    "Code": "GEG",
    "CountryCode": "US",
    "CountryName": "United States",
    "Name": "Spokane",
    "NameUpper": "SPOKANE",
    "CurrencyName": "Dollars",
    "CurrencyCode": "USD",
    "Region": null,
    "Continent": null,
    "IsRequiredVisa": false,
    "Latitude": 47.65878020000000000000,
    "Longitude": -117.42604650000000000000,
    "NearAirports": null
  },
  {
    "Code": "GES",
    "CountryCode": "PH",
    "CountryName": "Philippines",
    "Name": "General Santos",
    "NameUpper": "GENERAL SANTOS",
    "CurrencyName": "Pesos",
    "CurrencyCode": "PHP",
    "Region": null,
    "Continent": null,
    "IsRequiredVisa": false,
    "Latitude": 6.11638610000000000000,
    "Longitude": 125.17161800000000000000,
    "NearAirports": null
  },
  {
    "Code": "GIG",
    "CountryCode": "BR",
    "CountryName": "Brazil",
    "Name": "Rio De Janeiro",
    "NameUpper": "RIO DE JANEIRO",
    "CurrencyName": "Reais",
    "CurrencyCode": "BRL",
    "Region": null,
    "Continent": null,
    "IsRequiredVisa": false,
    "Latitude": -22.90684670000000000000,
    "Longitude": -43.17289650000000000000,
    "NearAirports": null
  },
  {
    "Code": "GLA",
    "CountryCode": "GB",
    "CountryName": "United Kingdom",
    "Name": "Glasgow",
    "NameUpper": "GLASGOW",
    "CurrencyName": "Pound sterling",
    "CurrencyCode": "GBP",
    "Region": null,
    "Continent": null,
    "IsRequiredVisa": false,
    "Latitude": 55.86423700000000000000,
    "Longitude": -4.25180600000000000000,
    "NearAirports": null
  },
  {
    "Code": "GLX",
    "CountryCode": "ID",
    "CountryName": "Indonesia",
    "Name": "Galela",
    "NameUpper": "GALELA",
    "CurrencyName": "Rupiahs",
    "CurrencyCode": "IDR",
    "Region": null,
    "Continent": null,
    "IsRequiredVisa": false,
    "Latitude": 1.79478360000000000000,
    "Longitude": 127.86184220000000000000,
    "NearAirports": null
  },
  {
    "Code": "GNS",
    "CountryCode": "ID",
    "CountryName": "Indonesia",
    "Name": "Gunung Sitoli",
    "NameUpper": "GUNUNG SITOLI",
    "CurrencyName": "Rupiahs",
    "CurrencyCode": "IDR",
    "Region": null,
    "Continent": null,
    "IsRequiredVisa": false,
    "Latitude": 1.28046920000000000000,
    "Longitude": 97.61467570000000000000,
    "NearAirports": null
  },